$GPGGA,102101.80,5314.1425509,N,00033.7867454,W,4,07,1.0,5.2233,M,47.1054,M,3.3,0000*58
$GPVTG,,T,,M,0.12,N,0.22,K,D*25
$GPGGA,102101.85,5314.1425536,N,00033.7867412,W,4,07,1.0,5.2209,M,47.1054,M,3.4,0000*5D
$GPVTG,,T,,M,0.28,N,0.52,K,D*2B
$GPGGA,102101.90,5314.1425564,N,00033.7867378,W,4,07,1.0,5.2186,M,47.1054,M,3.4,0000*51
$GPVTG,,T,,M,0.26,N,0.49,K,D*2F
$GPGGA,102101.95,5314.1425620,N,00033.7867332,W,4,07,1.0,5.2143,M,47.1054,M,3.5,0000*51
$GPVTG,,T,,M,0.44,N,0.82,K,D*2C
$GPGGA,102102.00,5314.1425700,N,00033.7867280,W,4,07,1.0,5.2100,M,47.1054,M,3.5,0000*52
$GPVTG,,T,,M,0.61,N,1.13,K,D*22
$GPGGA,102102.05,5314.1425769,N,00033.7867194,W,2,09,0.9,5.2099,M,47.1054,M,2.7,0000*5C
$GPVTG,41.57,T,41.64,M,0.57,N,1.06,K,D*23
$GPGGA,102102.10,5314.1425870,N,00033.7867068,W,2,09,0.9,5.2073,M,47.1054,M,2.7,0000*59
$GPVTG,39.31,T,39.38,M,0.78,N,1.44,K,D*21
$GPGGA,102102.15,5314.1425958,N,00033.7866958,W,2,09,0.9,5.2081,M,47.1054,M,2.8,0000*5E
$GPVTG,37.27,T,37.34,M,0.86,N,1.60,K,D*2D
$GPGGA,102102.20,5314.1426050,N,00033.7866857,W,2,09,0.9,5.2106,M,47.1054,M,2.8,0000*5A
$GPVTG,36.11,T,36.18,M,0.82,N,1.52,K,D*23
$GPGGA,102102.25,5314.1426134,N,00033.7866771,W,2,09,0.9,5.2146,M,47.1054,M,2.9,0000*52
$GPVTG,34.62,T,34.69,M,0.80,N,1.48,K,D*28
$GPGGA,102102.30,5314.1426208,N,00033.7866712,W,2,09,0.9,5.2213,M,47.1054,M,2.9,0000*5C
$GPVTG,32.85,T,32.92,M,0.63,N,1.17,K,D*22
$GPGGA,102102.35,5314.1426272,N,00033.7866656,W,2,09,0.9,5.2288,M,47.1054,M,3.0,0000*5F
$GPVTG,31.00,T,31.07,M,0.50,N,0.92,K,D*2F
$GPGGA,102102.40,5314.1426320,N,00033.7866603,W,2,09,0.9,5.2337,M,47.1054,M,3.0,0000*5E
$GPVTG,29.38,T,29.44,M,0.35,N,0.64,K,D*29
$GPGGA,102102.45,5314.1426371,N,00033.7866553,W,2,09,0.9,5.2399,M,47.1054,M,3.1,0000*5C
$GPVTG,28.01,T,28.08,M,0.23,N,0.42,K,D*28
$GPGGA,102102.50,5314.1426414,N,00033.7866505,W,2,09,0.9,5.2437,M,47.1054,M,3.1,0000*5C
$GPVTG,27.26,T,27.32,M,0.17,N,0.31,K,D*27
$GPGGA,102102.55,5314.1426443,N,00033.7866465,W,2,09,0.9,5.2451,M,47.1054,M,2.5,0000*59
$GPVTG,26.79,T,26.85,M,0.13,N,0.25,K,D*20
$GPGGA,102102.60,5314.1426440,N,00033.7866447,W,2,09,0.9,5.2447,M,47.1054,M,2.5,0000*5B
$GPVTG,26.33,T,26.40,M,0.13,N,0.24,K,D*26
$GPGGA,102102.65,5314.1426422,N,00033.7866440,W,2,09,0.9,5.2441,M,47.1054,M,2.6,0000*58
$GPVTG,25.82,T,25.89,M,0.10,N,0.18,K,D*25
$GPGGA,102102.70,5314.1426390,N,00033.7866446,W,2,09,0.9,5.2415,M,47.1054,M,2.6,0000*55
$GPVTG,24.88,T,24.95,M,0.07,N,0.12,K,D*2E
$GPGGA,102102.75,5314.1426350,N,00033.7866437,W,2,09,0.9,5.2412,M,47.1054,M,2.7,0000*5C
$GPVTG,24.11,T,24.18,M,0.07,N,0.13,K,D*2A
$GPGGA,102102.80,5314.1426310,N,00033.7866435,W,2,09,0.9,5.2422,M,47.1054,M,2.7,0000*53
$GPVTG,23.46,T,23.53,M,0.10,N,0.19,K,D*2B
$GPGGA,102102.85,5314.1426267,N,00033.7866431,W,2,09,0.9,5.2457,M,47.1054,M,2.8,0000*5E
$GPVTG,23.24,T,23.31,M,0.14,N,0.26,K,D*23
$GPGGA,102102.90,5314.1426226,N,00033.7866425,W,2,09,0.9,5.2510,M,47.1054,M,2.8,0000*58
$GPVTG,23.92,T,23.99,M,0.14,N,0.25,K,D*2F
$GPGGA,102102.95,5314.1426174,N,00033.7866428,W,2,09,0.9,5.2521,M,47.1054,M,2.9,0000*57
$GPVTG,,T,,M,0.14,N,0.26,K,D*27
$GPGGA,102103.00,5314.1426128,N,00033.7866429,W,2,09,0.9,5.2554,M,47.1054,M,2.9,0000*50
$GPVTG,,T,,M,0.14,N,0.25,K,D*24
$GPGGA,102103.05,5314.1426091,N,00033.7866408,W,2,09,0.9,5.2566,M,47.1054,M,3.0,0000*5C
$GPVTG,,T,,M,0.11,N,0.21,K,D*25
$GPGGA,102103.10,5314.1426059,N,00033.7866370,W,2,09,0.9,5.2580,M,47.1054,M,3.0,0000*5C
$GPVTG,,T,,M,0.11,N,0.20,K,D*24
$GPGGA,102103.15,5314.1426035,N,00033.7866329,W,2,09,0.9,5.2542,M,47.1054,M,3.1,0000*50
$GPVTG,,T,,M,0.07,N,0.13,K,D*23
$GPGGA,102103.20,5314.1426013,N,00033.7866283,W,2,09,0.9,5.2532,M,47.1054,M,3.1,0000*54
$GPVTG,,T,,M,0.07,N,0.13,K,D*23
$GPGGA,102103.25,5314.1425980,N,00033.7866242,W,2,09,0.9,5.2538,M,47.1054,M,3.2,0000*55
$GPVTG,,T,,M,0.08,N,0.15,K,D*2A
$GPGGA,102103.30,5314.1425943,N,00033.7866197,W,2,09,0.9,5.2516,M,47.1054,M,3.2,0000*59
$GPVTG,,T,,M,0.10,N,0.18,K,D*2E
$GPGGA,102103.35,5314.1425898,N,00033.7866155,W,2,09,0.9,5.2484,M,47.1054,M,3.3,0000*5E
$GPVTG,,T,,M,0.16,N,0.30,K,D*22
$GPGGA,102103.40,5314.1425863,N,00033.7866087,W,2,09,0.9,5.2441,M,47.1054,M,3.3,0000*5F
$GPVTG,,T,,M,0.21,N,0.38,K,D*2E
$GPGGA,102103.45,5314.1425808,N,00033.7866033,W,2,09,0.9,5.2413,M,47.1054,M,3.4,0000*58
$GPVTG,,T,,M,0.27,N,0.49,K,D*2E
$GPGGA,102103.50,5314.1425752,N,00033.7865977,W,2,09,0.9,5.2361,M,47.1054,M,3.4,0000*54
$GPVTG,,T,,M,0.30,N,0.56,K,D*26
$GPGGA,102103.55,5314.1425680,N,00033.7865912,W,2,09,0.9,5.2301,M,47.1054,M,2.8,0000*57
$GPVTG,,T,,M,0.37,N,0.68,K,D*2C
$GPGGA,102103.60,5314.1425598,N,00033.7865845,W,2,09,0.9,5.2240,M,47.1054,M,2.8,0000*5C
$GPVTG,,T,,M,0.45,N,0.83,K,D*2C
$GPGGA,102103.65,5314.1425504,N,00033.7865765,W,2,09,0.9,5.2160,M,47.1054,M,2.9,0000*51
$GPVTG,,T,,M,0.52,N,0.97,K,D*2F
$GPGGA,102103.70,5314.1425413,N,00033.7865668,W,2,09,0.9,5.2082,M,47.1054,M,2.9,0000*53
$GPVTG,146.47,T,146.54,M,0.61,N,1.13,K,D*20
$GPGGA,102103.75,5314.1425313,N,00033.7865583,W,2,09,0.9,5.2060,M,47.1054,M,3.0,0000*53
$GPVTG,146.91,T,146.98,M,0.65,N,1.20,K,D*2F
$GPGGA,102103.80,5314.1425215,N,00033.7865495,W,2,09,0.9,5.2022,M,47.1054,M,3.0,0000*5E
$GPVTG,146.66,T,146.73,M,0.67,N,1.24,K,D*24
$GPGGA,102103.85,5314.1425115,N,00033.7865404,W,2,09,0.9,5.1986,M,47.1054,M,3.1,0000*55
$GPVTG,146.42,T,146.49,M,0.65,N,1.21,K,D*2C
$GPGGA,102103.90,5314.1425014,N,00033.7865312,W,2,09,0.9,5.1917,M,47.1054,M,3.1,0000*59
$GPVTG,146.86,T,146.93,M,0.64,N,1.19,K,D*29
$GPGGA,102103.95,5314.1424909,N,00033.7865206,W,2,09,0.9,5.1878,M,47.1054,M,3.2,0000*57
$GPVTG,147.07,T,147.14,M,0.66,N,1.22,K,D*25
$GPGGA,102104.00,5314.1424816,N,00033.7865100,W,2,09,0.9,5.1819,M,47.1054,M,3.2,0000*51
$GPVTG,146.92,T,146.98,M,0.64,N,1.19,K,D*27
$GPGGA,102104.05,5314.1424746,N,00033.7865012,W,2,09,0.9,5.1787,M,47.1054,M,3.1,0000*57
$GPVTG,146.52,T,146.59,M,0.60,N,1.12,K,D*29
$GPGGA,102104.10,5314.1424677,N,00033.7864949,W,2,09,0.9,5.1750,M,47.1054,M,3.1,0000*5C
$GPVTG,146.03,T,146.09,M,0.53,N,0.97,K,D*24
$GPGGA,102104.15,5314.1424611,N,00033.7864904,W,2,09,0.9,5.1750,M,47.1054,M,3.2,0000*53
$GPVTG,146.05,T,146.12,M,0.40,N,0.74,K,D*27
$GPGGA,102104.20,5314.1424562,N,00033.7864848,W,2,09,0.9,5.1740,M,47.1054,M,3.2,0000*5A
$GPVTG,146.45,T,146.52,M,0.28,N,0.51,K,D*2E
$GPGGA,102104.25,5314.1424526,N,00033.7864775,W,2,09,0.9,5.1738,M,47.1054,M,3.3,0000*50
$GPVTG,146.69,T,146.76,M,0.19,N,0.36,K,D*25
$GPGGA,102104.30,5314.1424488,N,00033.7864690,W,2,09,0.9,5.1715,M,47.1054,M,3.3,0000*54
$GPVTG,145.94,T,146.01,M,0.18,N,0.33,K,D*20
$GPGGA,102104.35,5314.1424445,N,00033.7864586,W,2,09,0.9,5.1666,M,47.1054,M,3.4,0000*56
$GPVTG,143.37,T,143.43,M,0.29,N,0.54,K,D*2F
$GPGGA,102104.40,5314.1424398,N,00033.7864471,W,2,09,0.9,5.1602,M,47.1054,M,3.4,0000*58
$GPVTG,139.83,T,139.90,M,0.43,N,0.79,K,D*2D
$GPGGA,102104.45,5314.1424347,N,00033.7864354,W,2,09,0.9,5.1523,M,47.1054,M,3.5,0000*5E
$GPVTG,136.45,T,136.52,M,0.53,N,0.99,K,D*26
$GPGGA,102104.50,5314.1424295,N,00033.7864215,W,2,09,0.9,5.1465,M,47.1054,M,3.5,0000*53
$GPVTG,133.45,T,133.52,M,0.63,N,1.17,K,D*22
$GPGGA,102104.55,5314.1424252,N,00033.7864037,W,2,09,0.9,5.1418,M,47.1054,M,2.7,0000*56
$GPVTG,130.44,T,130.51,M,0.70,N,1.29,K,D*2F
$GPGGA,102104.60,5314.1424223,N,00033.7863805,W,2,09,0.9,5.1413,M,47.1054,M,2.7,0000*53
$GPVTG,126.44,T,126.51,M,0.81,N,1.50,K,D*2F
$GPGGA,102104.65,5314.1424198,N,00033.7863544,W,2,09,0.9,5.1433,M,47.1054,M,2.8,0000*50
$GPVTG,121.50,T,121.57,M,0.96,N,1.78,K,D*20
$GPGGA,102104.70,5314.1424175,N,00033.7863273,W,2,09,0.9,5.1438,M,47.1054,M,2.8,0000*5F
$GPVTG,116.23,T,116.30,M,1.10,N,2.04,K,D*22
$GPGGA,102104.75,5314.1424153,N,00033.7863000,W,2,09,0.9,5.1470,M,47.1054,M,2.9,0000*55
$GPVTG,111.39,T,111.46,M,1.19,N,2.20,K,D*27
$GPGGA,102104.80,5314.1424147,N,00033.7862734,W,2,09,0.9,5.1495,M,47.1054,M,2.9,0000*50
$GPVTG,107.33,T,107.40,M,1.18,N,2.18,K,D*21
$GPGGA,102104.85,5314.1424124,N,00033.7862493,W,2,09,0.9,5.1493,M,47.1054,M,3.0,0000*50
$GPVTG,104.44,T,104.51,M,1.07,N,1.99,K,D*25
$GPGGA,102104.90,5314.1424105,N,00033.7862278,W,2,09,0.9,5.1478,M,47.1054,M,3.0,0000*51
$GPVTG,102.56,T,102.63,M,0.91,N,1.69,K,D*26
$GPGGA,102104.95,5314.1424096,N,00033.7862034,W,2,09,0.9,5.1446,M,47.1054,M,3.1,0000*59
$GPVTG,100.84,T,100.91,M,0.84,N,1.55,K,D*2F
$GPGGA,102105.00,5314.1424073,N,00033.7861777,W,2,09,0.9,5.1387,M,47.1054,M,3.1,0000*56
$GPVTG,99.57,T,99.64,M,0.83,N,1.53,K,D*2A
$GPGGA,102105.05,5314.1424036,N,00033.7861544,W,2,09,0.9,5.1341,M,47.1054,M,3.2,0000*59
$GPVTG,98.54,T,98.61,M,0.86,N,1.59,K,D*23
$GPGGA,102105.10,5314.1424001,N,00033.7861306,W,2,09,0.9,5.1287,M,47.1054,M,3.2,0000*52
$GPVTG,97.96,T,98.03,M,0.98,N,1.81,K,D*2C
$GPGGA,102105.15,5314.1423955,N,00033.7861077,W,2,09,0.9,5.1173,M,47.1054,M,3.3,0000*54
$GPVTG,98.07,T,98.14,M,1.07,N,1.99,K,D*23
$GPGGA,102105.20,5314.1423905,N,00033.7860794,W,2,09,0.9,5.1013,M,47.1054,M,3.3,0000*5B
$GPVTG,98.46,T,98.52,M,1.21,N,2.25,K,D*24
$GPGGA,102105.25,5314.1423840,N,00033.7860463,W,2,09,0.9,5.0886,M,47.1054,M,3.4,0000*57
$GPVTG,99.01,T,99.08,M,1.44,N,2.66,K,D*2C
$GPGGA,102105.30,5314.1423777,N,00033.7860103,W,2,09,0.9,5.0764,M,47.1054,M,3.4,0000*58
$GPVTG,103.05,T,103.12,M,1.65,N,3.05,K,D*24
$GPGGA,102105.35,5314.1423713,N,00033.7859707,W,2,09,0.9,5.0722,M,47.1054,M,3.5,0000*54
$GPVTG,102.12,T,102.19,M,1.88,N,3.49,K,D*22
$GPGGA,102105.40,5314.1423639,N,00033.7859311,W,2,09,0.9,5.0664,M,47.1054,M,3.5,0000*5F
$GPVTG,102.32,T,102.39,M,2.03,N,3.76,K,D*2E
$GPGGA,102105.45,5314.1423568,N,00033.7858905,W,2,09,0.9,5.0562,M,47.1054,M,3.6,0000*55
$GPVTG,101.59,T,101.66,M,2.08,N,3.85,K,D*2E
$GPGGA,102105.50,5314.1423518,N,00033.7858513,W,2,09,0.9,5.0463,M,47.1054,M,3.6,0000*5D
$GPVTG,100.03,T,100.10,M,2.04,N,3.77,K,D*21
$GPGGA,102105.55,5314.1423500,N,00033.7858140,W,2,09,0.9,5.0438,M,47.1054,M,2.8,0000*52
$GPVTG,97.76,T,97.83,M,1.90,N,3.52,K,D*20
$GPGGA,102105.60,5314.1423561,N,00033.7857870,W,2,09,0.9,5.0487,M,47.1054,M,2.8,0000*52
$GPVTG,88.37,T,88.44,M,1.61,N,2.98,K,D*27
$GPGGA,102105.65,5314.1423574,N,00033.7857546,W,2,09,0.9,5.0503,M,47.1054,M,2.9,0000*57
$GPVTG,87.88,T,87.95,M,1.44,N,2.66,K,D*29
$GPGGA,102105.70,5314.1423617,N,00033.7857241,W,2,09,0.9,5.0544,M,47.1054,M,2.9,0000*56
$GPVTG,86.89,T,86.96,M,1.31,N,2.43,K,D*2E
$GPGGA,102105.75,5314.1423658,N,00033.7856911,W,2,09,0.9,5.0483,M,47.1054,M,3.0,0000*55
$GPVTG,85.66,T,85.73,M,1.29,N,2.39,K,D*20
$GPGGA,102105.80,5314.1423735,N,00033.7856593,W,2,09,0.9,5.0358,M,47.1054,M,3.0,0000*52
$GPVTG,84.63,T,84.70,M,1.42,N,2.63,K,D*24
$GPGGA,102105.85,5314.1423791,N,00033.7856251,W,2,09,0.9,5.0242,M,47.1054,M,3.1,0000*5B
$GPVTG,83.54,T,83.61,M,1.51,N,2.79,K,D*29
$GPGGA,102105.90,5314.1423829,N,00033.7855958,W,2,09,0.9,5.0114,M,47.1054,M,3.1,0000*52
$GPVTG,82.75,T,82.82,M,1.51,N,2.80,K,D*21
$GPGGA,102105.95,5314.1423905,N,00033.7855605,W,2,09,0.9,5.0008,M,47.1054,M,3.2,0000*50
$GPVTG,71.89,T,71.96,M,1.59,N,2.95,K,D*2B
$GPGGA,102106.00,5314.1423946,N,00033.7855284,W,2,09,0.9,4.9902,M,47.1054,M,3.2,0000*5E
$GPVTG,75.57,T,75.64,M,1.53,N,2.83,K,D*28
$GPGGA,102106.05,5314.1424008,N,00033.7854925,W,2,09,0.9,4.9922,M,47.1054,M,3.3,0000*5D
$GPVTG,75.62,T,75.69,M,1.52,N,2.81,K,D*20
$GPGGA,102106.10,5314.1425035,N,00033.7855874,W,4,06,1.1,4.9630,M,47.1054,M,2.6,0000*5A
$GPVTG,75.74,T,75.81,M,1.59,N,2.94,K,D*2E
$GPGGA,102106.15,5314.1425073,N,00033.7855535,W,4,06,1.1,4.9602,M,47.1054,M,2.7,0000*55
$GPVTG,76.07,T,76.14,M,1.50,N,2.78,K,D*2D
$GPGGA,102106.20,5314.1425068,N,00033.7855229,W,4,06,1.1,4.9569,M,47.1054,M,2.7,0000*5D
$GPVTG,76.58,T,76.65,M,1.47,N,2.72,K,D*2D
$GPGGA,102106.25,5314.1425083,N,00033.7854822,W,4,06,1.1,4.9474,M,47.1054,M,2.8,0000*5F
$GPVTG,77.34,T,77.41,M,1.52,N,2.82,K,D*2A
$GPGGA,102106.30,5314.1425115,N,00033.7854388,W,4,06,1.1,4.9443,M,47.1054,M,2.8,0000*5A
$GPVTG,78.16,T,78.22,M,1.65,N,3.05,K,D*25
$GPGGA,102106.35,5314.1425157,N,00033.7853949,W,4,06,1.1,4.9284,M,47.1054,M,2.9,0000*55
$GPVTG,78.97,T,79.04,M,1.84,N,3.40,K,D*27
$GPGGA,102106.40,5314.1425169,N,00033.7853512,W,4,06,1.1,4.9015,M,47.1054,M,2.9,0000*52
$GPVTG,84.11,T,84.18,M,2.05,N,3.79,K,D*25
$GPGGA,102106.45,5314.1425223,N,00033.7852983,W,4,06,1.1,4.8966,M,47.1054,M,3.0,0000*5B
$GPVTG,83.80,T,83.87,M,2.22,N,4.11,K,D*27
$GPGGA,102106.50,5314.1425279,N,00033.7852489,W,4,06,1.1,4.8928,M,47.1054,M,3.0,0000*5D
$GPVTG,82.88,T,82.95,M,2.28,N,4.22,K,D*26
$GPGGA,102106.55,5314.1425355,N,00033.7851904,W,4,06,1.1,4.8871,M,47.1054,M,3.1,0000*50
$GPVTG,82.28,T,82.35,M,2.49,N,4.62,K,D*25
$GPGGA,102106.60,5314.1425427,N,00033.7851302,W,4,06,1.1,4.8914,M,47.1054,M,3.1,0000*5A
$GPVTG,82.00,T,82.06,M,2.64,N,4.90,K,D*2D
$GPGGA,102106.65,5314.1425403,N,00033.7850880,W,4,06,1.1,4.8803,M,47.1054,M,3.2,0000*5D
$GPVTG,82.58,T,82.65,M,2.51,N,4.65,K,D*29
$GPGGA,102106.70,5314.1425448,N,00033.7850423,W,4,06,1.1,4.8795,M,47.1054,M,3.2,0000*53
$GPVTG,82.32,T,82.39,M,2.38,N,4.41,K,D*25
$GPGGA,102106.75,5314.1425502,N,00033.7849946,W,4,06,1.1,4.8824,M,47.1054,M,3.3,0000*5B
$GPVTG,81.00,T,81.07,M,2.08,N,3.85,K,D*25
$GPGGA,102106.80,5314.1425491,N,00033.7849564,W,4,06,1.1,4.8770,M,47.1054,M,3.3,0000*58
$GPVTG,82.46,T,82.53,M,1.72,N,3.18,K,D*2C
$GPGGA,102106.85,5314.1425561,N,00033.7849132,W,4,06,1.1,4.8766,M,47.1054,M,3.4,0000*54
$GPVTG,78.31,T,78.38,M,1.72,N,3.19,K,D*20
$GPGGA,102106.90,5314.1425682,N,00033.7848672,W,4,06,1.1,4.8808,M,47.1054,M,3.4,0000*5B
$GPVTG,74.42,T,74.49,M,1.76,N,3.26,K,D*2A
$GPGGA,102106.95,5314.1425752,N,00033.7848228,W,4,06,1.1,4.8755,M,47.1054,M,3.5,0000*5F
$GPVTG,72.73,T,72.80,M,1.85,N,3.43,K,D*22
$GPGGA,102107.00,5314.1425804,N,00033.7847780,W,4,06,1.1,4.8547,M,47.1054,M,3.5,0000*57
$GPVTG,69.75,T,69.82,M,2.04,N,3.78,K,D*24
$GPGGA,102107.05,5314.1425856,N,00033.7847378,W,4,06,1.1,4.8372,M,47.1054,M,3.6,0000*55
$GPVTG,70.09,T,70.16,M,2.04,N,3.78,K,D*22
$GPGGA,102107.10,5314.1425953,N,00033.7846872,W,4,06,1.1,4.8419,M,47.1053,M,2.9,0000*56
$GPVTG,73.34,T,73.41,M,2.07,N,3.84,K,D*2E
$GPGGA,102107.15,5314.1425986,N,00033.7846499,W,4,06,1.1,4.8368,M,47.1053,M,3.0,0000*5B
$GPVTG,76.37,T,76.44,M,1.90,N,3.51,K,D*2D
$GPGGA,102107.20,5314.1426022,N,00033.7846129,W,4,06,1.1,4.8423,M,47.1053,M,3.0,0000*5F
$GPVTG,80.22,T,80.29,M,1.79,N,3.32,K,D*20
$GPGGA,102107.25,5314.1426071,N,00033.7845725,W,4,06,1.1,4.8424,M,47.1053,M,3.1,0000*53
$GPVTG,82.37,T,82.44,M,1.69,N,3.13,K,D*2D
$GPGGA,102107.30,5314.1426095,N,00033.7845449,W,4,06,1.1,4.8482,M,47.1053,M,3.1,0000*58
$GPVTG,82.52,T,82.59,M,1.40,N,2.60,K,D*2C
$GPGGA,102107.35,5314.1426147,N,00033.7845092,W,4,06,1.1,4.8446,M,47.1053,M,3.2,0000*5A
$GPVTG,82.54,T,82.61,M,1.38,N,2.55,K,D*28
$GPGGA,102107.40,5314.1426202,N,00033.7844714,W,4,06,1.1,4.8512,M,47.1053,M,3.2,0000*52
$GPVTG,82.33,T,82.40,M,1.38,N,2.56,K,D*29
$GPGGA,102107.45,5314.1426285,N,00033.7844252,W,4,06,1.1,4.8459,M,47.1053,M,3.3,0000*50
$GPVTG,81.92,T,81.99,M,1.52,N,2.82,K,D*23
$GPGGA,102107.50,5314.1426349,N,00033.7843825,W,4,06,1.1,4.8308,M,47.1053,M,3.3,0000*5B
$GPVTG,73.96,T,74.03,M,1.82,N,3.38,K,D*2E
$GPGGA,102107.55,5314.1426413,N,00033.7843375,W,4,06,1.1,4.8254,M,47.1053,M,3.4,0000*57
$GPVTG,73.61,T,73.68,M,2.15,N,3.99,K,D*2A
$GPGGA,102107.60,5314.1426474,N,00033.7842878,W,4,07,1.0,4.8188,M,47.1053,M,2.7,0000*57
$GPVTG,76.27,T,76.34,M,2.32,N,4.30,K,D*20
$GPGGA,102107.65,5314.1426548,N,00033.7842311,W,4,07,1.0,4.8096,M,47.1053,M,2.8,0000*59
$GPVTG,77.47,T,77.54,M,2.48,N,4.60,K,D*28
$GPGGA,102107.70,5314.1426618,N,00033.7841713,W,4,07,1.0,4.8040,M,47.1053,M,2.8,0000*55
$GPVTG,79.00,T,79.06,M,2.65,N,4.91,K,D*2D
$GPGGA,102107.75,5314.1426673,N,00033.7841085,W,4,07,1.0,4.8057,M,47.1053,M,2.9,0000*52
$GPVTG,81.89,T,81.96,M,2.74,N,5.08,K,D*24
$GPGGA,102107.80,5314.1426782,N,00033.7840488,W,4,07,1.0,4.8061,M,47.1053,M,2.9,0000*5A
$GPVTG,79.74,T,79.81,M,2.86,N,5.30,K,D*26
$GPGGA,102107.85,5314.1426891,N,00033.7840002,W,4,07,1.0,4.8122,M,47.1053,M,3.0,0000*5A
$GPVTG,77.74,T,77.81,M,2.70,N,5.00,K,D*2C
$GPGGA,102107.90,5314.1426987,N,00033.7839543,W,4,07,1.0,4.8150,M,47.1053,M,3.0,0000*53
$GPVTG,76.00,T,76.07,M,2.47,N,4.57,K,D*26
$GPGGA,102107.95,5314.1427088,N,00033.7839087,W,4,07,1.0,4.8287,M,47.1053,M,3.1,0000*54
$GPVTG,70.29,T,70.36,M,2.18,N,4.04,K,D*23
$GPGGA,102108.00,5314.1427162,N,00033.7838740,W,4,07,1.0,4.8385,M,47.1053,M,3.1,0000*5C
$GPVTG,67.69,T,67.76,M,1.70,N,3.14,K,D*28
$GPGGA,102108.05,5314.1427275,N,00033.7838378,W,4,07,1.0,4.8456,M,47.1053,M,3.2,0000*59
$GPVTG,65.08,T,65.15,M,1.52,N,2.82,K,D*24
$GPGGA,102108.10,5314.1427374,N,00033.7838009,W,4,07,1.0,4.8433,M,47.1053,M,3.2,0000*5B
$GPVTG,62.30,T,62.37,M,1.43,N,2.65,K,D*26
$GPGGA,102108.15,5314.1427481,N,00033.7837677,W,4,07,1.0,4.8432,M,47.1053,M,3.3,0000*53
$GPVTG,62.18,T,62.25,M,1.34,N,2.48,K,D*20
$GPGGA,102108.20,5314.1427581,N,00033.7837342,W,4,07,1.0,4.8410,M,47.1053,M,3.3,0000*57
$GPVTG,60.15,T,60.22,M,1.48,N,2.75,K,D*2F
$GPGGA,102108.25,5314.1427661,N,00033.7836986,W,4,07,1.0,4.8299,M,47.1053,M,3.4,0000*5C
$GPVTG,64.01,T,64.08,M,1.51,N,2.80,K,D*20
$GPGGA,102108.30,5314.1427792,N,00033.7836636,W,4,07,1.0,4.8184,M,47.1053,M,3.4,0000*5E
$GPVTG,61.78,T,61.85,M,1.56,N,2.89,K,D*25
$GPGGA,102108.35,5314.1427883,N,00033.7836295,W,4,07,1.0,4.8124,M,47.1053,M,3.5,0000*52
$GPVTG,63.73,T,63.80,M,1.59,N,2.95,K,D*29
$GPGGA,102108.40,5314.1428007,N,00033.7835954,W,4,07,1.0,4.8160,M,47.1053,M,3.5,0000*5E
$GPVTG,62.47,T,62.54,M,1.61,N,2.98,K,D*21
$GPGGA,102108.45,5314.1428078,N,00033.7835637,W,4,07,1.0,4.8097,M,47.1053,M,3.6,0000*53
$GPVTG,61.26,T,61.33,M,1.56,N,2.89,K,D*23
$GPGGA,102108.50,5314.1428171,N,00033.7835294,W,4,07,1.0,4.8048,M,47.1053,M,3.6,0000*50
$GPVTG,65.68,T,65.75,M,1.50,N,2.78,K,D*23
$GPGGA,102108.55,5314.1428234,N,00033.7834999,W,4,07,1.0,4.8047,M,47.1053,M,3.7,0000*5E
$GPVTG,66.83,T,66.90,M,1.43,N,2.65,K,D*23
$GPGGA,102108.60,5314.1428292,N,00033.7834708,W,4,06,2.3,4.8014,M,47.1053,M,2.6,0000*55
$GPVTG,67.17,T,67.24,M,1.32,N,2.45,K,D*25
$GPGGA,102108.65,5314.1428405,N,00033.7834372,W,4,06,2.3,4.8183,M,47.1053,M,2.7,0000*5F
$GPVTG,67.48,T,67.55,M,1.37,N,2.54,K,D*2C
$GPGGA,102108.70,5314.1428454,N,00033.7834054,W,4,06,2.3,4.8139,M,47.1053,M,2.7,0000*59
$GPVTG,67.90,T,67.97,M,1.34,N,2.47,K,D*26
$GPGGA,102108.75,5314.1428511,N,00033.7833750,W,4,06,2.3,4.7988,M,47.1053,M,2.8,0000*5A
$GPVTG,68.18,T,68.24,M,1.42,N,2.64,K,D*2E
$GPGGA,102108.80,5314.1428596,N,00033.7833433,W,4,06,2.3,4.8040,M,47.1053,M,2.8,0000*5B
$GPVTG,68.48,T,68.55,M,1.48,N,2.75,K,D*27
$GPGGA,102108.85,5314.1428712,N,00033.7833064,W,4,06,2.3,4.8078,M,47.1053,M,2.9,0000*5C
$GPVTG,68.83,T,68.90,M,1.53,N,2.84,K,D*2D
$GPGGA,102108.90,5314.1428726,N,00033.7832690,W,4,06,2.3,4.7897,M,47.1053,M,2.9,0000*55
$GPVTG,73.71,T,73.78,M,1.64,N,3.04,K,D*2B
$GPGGA,102108.95,5314.1428781,N,00033.7832294,W,4,06,2.3,4.7799,M,47.1053,M,3.0,0000*54
$GPVTG,76.66,T,76.73,M,1.74,N,3.22,K,D*23
$GPGGA,102109.00,5314.1428823,N,00033.7831850,W,4,06,2.3,4.7692,M,47.1053,M,3.0,0000*55
$GPVTG,78.87,T,78.94,M,1.92,N,3.56,K,D*2E
$GPGGA,102109.05,5314.1428856,N,00033.7831451,W,4,06,2.3,4.7654,M,47.1053,M,3.1,0000*54
$GPVTG,82.53,T,82.60,M,1.95,N,3.61,K,D*2F
$GPGGA,102109.10,5314.1428960,N,00033.7830941,W,4,06,2.3,4.7692,M,47.1053,M,3.1,0000*53
$GPVTG,81.51,T,81.58,M,2.07,N,3.84,K,D*25
$GPGGA,102109.15,5314.1428988,N,00033.7830578,W,4,06,2.3,4.7588,M,47.1053,M,3.2,0000*5D
$GPVTG,82.05,T,82.12,M,2.01,N,3.73,K,D*24
$GPGGA,102109.20,5314.1429080,N,00033.7830179,W,4,06,2.3,4.7706,M,47.1053,M,3.2,0000*5A
$GPVTG,77.88,T,77.95,M,1.86,N,3.45,K,D*27
$GPGGA,102109.25,5314.1429140,N,00033.7829863,W,4,06,2.3,4.7817,M,47.1053,M,3.3,0000*56
$GPVTG,73.40,T,73.47,M,1.74,N,3.23,K,D*21
$GPGGA,102109.30,5314.1429231,N,00033.7829559,W,4,06,2.3,4.7870,M,47.1053,M,3.3,0000*52
$GPVTG,70.69,T,70.76,M,1.42,N,2.63,K,D*28
$GPGGA,102109.35,5314.1429267,N,00033.7829245,W,4,06,2.3,4.7825,M,47.1053,M,3.4,0000*59
$GPVTG,70.40,T,70.47,M,1.33,N,2.46,K,D*20
$GPGGA,102109.40,5314.1429347,N,00033.7828934,W,4,06,2.3,4.7868,M,47.1053,M,3.4,0000*5D
$GPVTG,70.01,T,70.08,M,1.28,N,2.38,K,D*2D
$GPGGA,102109.45,5314.1429375,N,00033.7828681,W,4,06,2.3,4.7704,M,47.1053,M,3.5,0000*5C
$GPVTG,69.77,T,69.84,M,1.23,N,2.28,K,D*22
$GPGGA,102109.50,5314.1429474,N,00033.7828335,W,4,06,2.3,4.7810,M,47.1053,M,3.5,0000*5E
$GPVTG,69.58,T,69.65,M,1.38,N,2.55,K,D*20
$GPGGA,102109.55,5314.1429581,N,00033.7828017,W,4,06,2.3,4.7832,M,47.1053,M,3.6,0000*50
$GPVTG,69.36,T,69.43,M,1.43,N,2.65,K,D*23
$GPGGA,102109.60,5314.1429648,N,00033.7827692,W,4,07,1.0,4.7701,M,47.1053,M,2.9,0000*54
$GPVTG,69.37,T,69.43,M,1.45,N,2.68,K,D*29
$GPGGA,102109.65,5314.1429731,N,00033.7827332,W,4,07,1.0,4.7714,M,47.1053,M,3.0,0000*5D
$GPVTG,68.24,T,68.31,M,1.61,N,2.98,K,D*27
$GPGGA,102109.70,5314.1429810,N,00033.7826999,W,4,07,1.0,4.7654,M,47.1053,M,3.0,0000*5A
$GPVTG,68.96,T,69.03,M,1.57,N,2.91,K,D*22
$GPGGA,102109.75,5314.1429915,N,00033.7826633,W,4,07,1.0,4.7685,M,47.1053,M,3.1,0000*59
$GPVTG,69.35,T,69.42,M,1.64,N,3.04,K,D*22
$GPGGA,102109.80,5314.1429963,N,00033.7826307,W,4,07,1.0,4.7660,M,47.1053,M,3.1,0000*5B
$GPVTG,70.36,T,70.43,M,1.62,N,3.00,K,D*22
$GPGGA,102109.85,5314.1429996,N,00033.7826013,W,4,07,1.0,4.7582,M,47.1053,M,3.2,0000*5E
$GPVTG,74.33,T,74.40,M,1.46,N,2.70,K,D*24
$GPGGA,102109.90,5314.1430015,N,00033.7825664,W,4,07,1.0,4.7610,M,47.1053,M,3.2,0000*5D
$GPVTG,74.75,T,74.82,M,1.43,N,2.66,K,D*2A
$GPGGA,102109.95,5314.1430075,N,00033.7825304,W,4,07,1.0,4.7587,M,47.1053,M,3.3,0000*51
$GPVTG,75.45,T,75.52,M,1.39,N,2.57,K,D*2B
$GPGGA,102110.00,5314.1430146,N,00033.7824940,W,4,07,1.0,4.7637,M,47.1053,M,3.3,0000*57
$GPVTG,76.06,T,76.13,M,1.48,N,2.73,K,D*29
$GPGGA,102110.05,5314.1430235,N,00033.7824510,W,4,07,1.0,4.7553,M,47.1053,M,3.4,0000*5A
$GPVTG,77.66,T,77.73,M,1.73,N,3.21,K,D*27
$GPGGA,102110.10,5314.1430279,N,00033.7824089,W,4,07,1.0,4.7471,M,47.1053,M,2.7,0000*50
$GPVTG,74.81,T,74.88,M,1.91,N,3.54,K,D*24
$GPGGA,102110.15,5314.1430335,N,00033.7823665,W,4,07,1.0,4.7444,M,47.1053,M,2.8,0000*56
$GPVTG,75.35,T,75.42,M,2.05,N,3.80,K,D*2A
$GPGGA,102110.20,5314.1430389,N,00033.7823154,W,4,07,1.0,4.7370,M,47.1053,M,2.8,0000*52
$GPVTG,76.30,T,76.37,M,2.23,N,4.14,K,D*23
$GPGGA,102110.25,5314.1430423,N,00033.7822681,W,4,07,1.0,4.7314,M,47.1053,M,2.9,0000*5D
$GPVTG,81.96,T,82.03,M,2.24,N,4.16,K,D*2E
$GPGGA,102110.30,5314.1430439,N,00033.7822162,W,4,07,1.0,4.7291,M,47.1053,M,2.9,0000*54
$GPVTG,84.69,T,84.76,M,2.32,N,4.29,K,D*24
$GPGGA,102110.35,5314.1430465,N,00033.7821646,W,4,07,1.0,4.7299,M,47.1053,M,3.0,0000*5A
$GPVTG,86.44,T,86.51,M,2.41,N,4.46,K,D*23
$GPGGA,102110.40,5314.1430435,N,00033.7821196,W,4,07,1.0,4.7189,M,47.1053,M,3.0,0000*55
$GPVTG,91.57,T,91.64,M,2.25,N,4.16,K,D*20
$GPGGA,102110.45,5314.1430424,N,00033.7820799,W,4,07,1.0,4.7181,M,47.1053,M,3.1,0000*51
$GPVTG,93.34,T,93.41,M,2.06,N,3.82,K,D*29
$GPGGA,102110.50,5314.1430452,N,00033.7820408,W,4,07,1.0,4.7202,M,47.1053,M,3.1,0000*57
$GPVTG,91.85,T,91.92,M,1.81,N,3.35,K,D*2D
$GPGGA,102110.55,5314.1430462,N,00033.7820065,W,4,07,1.0,4.7239,M,47.1053,M,3.2,0000*55
$GPVTG,91.94,T,92.01,M,1.48,N,2.73,K,D*22
$GPGGA,102110.60,5314.1430473,N,00033.7819700,W,4,07,1.0,4.7218,M,47.1053,M,3.2,0000*5E
$GPVTG,91.67,T,91.74,M,1.36,N,2.52,K,D*25
$GPGGA,102110.65,5314.1430518,N,00033.7819322,W,4,07,1.0,4.7261,M,47.1053,M,3.3,0000*5C
$GPVTG,90.99,T,91.06,M,1.38,N,2.55,K,D*29
$GPGGA,102110.70,5314.1430532,N,00033.7818945,W,4,07,1.0,4.7161,M,47.1053,M,3.3,0000*59
$GPVTG,90.48,T,90.55,M,1.42,N,2.63,K,D*2A
$GPGGA,102110.75,5314.1430544,N,00033.7818562,W,4,07,1.0,4.7082,M,47.1053,M,3.4,0000*5F
$GPVTG,89.94,T,90.01,M,1.57,N,2.90,K,D*2A
$GPGGA,102110.80,5314.1430579,N,00033.7818201,W,4,07,1.0,4.7022,M,47.1053,M,3.4,0000*53
$GPVTG,89.35,T,89.42,M,1.63,N,3.02,K,D*23
$GPGGA,102110.85,5314.1430589,N,00033.7817850,W,4,07,1.0,4.6897,M,47.1053,M,3.5,0000*5E
$GPVTG,89.18,T,89.25,M,1.63,N,3.03,K,D*2C
$GPGGA,102110.90,5314.1430596,N,00033.7817437,W,4,07,1.0,4.6807,M,47.1053,M,3.5,0000*50
$GPVTG,89.06,T,89.13,M,1.68,N,3.11,K,D*2E
$GPGGA,102110.95,5314.1430645,N,00033.7817018,W,4,07,1.0,4.6755,M,47.1053,M,3.6,0000*5A
$GPVTG,88.73,T,88.80,M,1.70,N,3.15,K,D*2B
$GPGGA,102111.00,5314.1430693,N,00033.7816590,W,4,07,1.0,4.6799,M,47.1053,M,3.6,0000*58
$GPVTG,84.18,T,84.24,M,1.79,N,3.32,K,D*24
$GPGGA,102111.05,5314.1430739,N,00033.7816215,W,4,07,1.0,4.6834,M,47.1053,M,3.7,0000*5F
$GPVTG,79.62,T,79.69,M,1.82,N,3.37,K,D*21
$GPGGA,102111.10,5314.1430799,N,00033.7815830,W,4,07,1.0,4.6828,M,47.1053,M,2.8,0000*5C
$GPVTG,72.96,T,73.03,M,1.82,N,3.37,K,D*27
$GPGGA,102111.15,5314.1430831,N,00033.7815477,W,4,07,1.0,4.6801,M,47.1053,M,2.9,0000*51
$GPVTG,73.38,T,73.45,M,1.76,N,3.25,K,D*28
$GPGGA,102111.20,5314.1430912,N,00033.7815023,W,4,07,1.0,4.6733,M,47.1053,M,2.9,0000*5C
$GPVTG,69.92,T,69.99,M,1.84,N,3.41,K,D*26
$GPGGA,102111.25,5314.1430985,N,00033.7814546,W,4,07,1.0,4.6739,M,47.1053,M,3.0,0000*52
$GPVTG,69.16,T,69.23,M,2.04,N,3.77,K,D*25
$GPGGA,102111.30,5314.1431007,N,00033.7814137,W,4,07,1.0,4.6599,M,47.1053,M,3.0,0000*5E
$GPVTG,74.16,T,74.23,M,2.06,N,3.81,K,D*2E
$GPGGA,102111.35,5314.1431115,N,00033.7813601,W,4,07,1.0,4.6484,M,47.1053,M,3.1,0000*50
$GPVTG,71.97,T,72.04,M,2.41,N,4.46,K,D*2E
$GPGGA,102111.40,5314.1431171,N,00033.7813056,W,4,07,1.0,4.6415,M,47.1053,M,3.1,0000*5C
$GPVTG,75.08,T,75.15,M,2.49,N,4.61,K,D*26
$GPGGA,102111.45,5314.1431269,N,00033.7812519,W,4,07,1.0,4.6308,M,47.1053,M,3.2,0000*54
$GPVTG,75.15,T,75.22,M,2.54,N,4.71,K,D*23
$GPGGA,102111.50,5314.1431331,N,00033.7811964,W,4,07,1.0,4.6268,M,47.1053,M,3.2,0000*5E
$GPVTG,73.46,T,73.53,M,2.76,N,5.11,K,D*24
$GPGGA,102111.55,5314.1431459,N,00033.7811351,W,4,07,1.0,4.6418,M,47.1053,M,2.6,0000*5A
$GPVTG,74.90,T,74.97,M,2.75,N,5.09,K,D*2D
$GPGGA,102111.60,5314.1431564,N,00033.7810770,W,4,07,1.0,4.6445,M,47.1053,M,2.6,0000*5D
$GPVTG,72.71,T,72.78,M,2.77,N,5.14,K,D*2D
$GPGGA,102111.65,5314.1431654,N,00033.7810277,W,4,07,1.0,4.6537,M,47.1053,M,2.7,0000*5F
$GPVTG,73.69,T,73.76,M,2.63,N,4.86,K,D*25
$GPGGA,102111.70,5314.1431783,N,00033.7809764,W,4,07,1.0,4.6664,M,47.1053,M,2.7,0000*5A
$GPVTG,70.63,T,70.70,M,2.50,N,4.62,K,D*23
$GPGGA,102111.75,5314.1431877,N,00033.7809316,W,4,07,1.0,4.6643,M,47.1053,M,2.8,0000*50
$GPVTG,69.31,T,69.38,M,2.22,N,4.11,K,D*29
$GPGGA,102111.80,5314.1432012,N,00033.7808815,W,4,07,1.0,4.6622,M,47.1053,M,2.8,0000*5C
$GPVTG,67.52,T,67.59,M,2.11,N,3.90,K,D*25
$GPGGA,102111.85,5314.1432139,N,00033.7808310,W,4,07,1.0,4.6628,M,47.1053,M,2.9,0000*54
$GPVTG,64.19,T,64.26,M,2.19,N,4.06,K,D*22
$GPGGA,102111.90,5314.1432270,N,00033.7807815,W,4,07,1.0,4.6587,M,47.1053,M,2.9,0000*59
$GPVTG,66.55,T,66.62,M,2.21,N,4.09,K,D*2E
$GPGGA,102111.95,5314.1432421,N,00033.7807324,W,4,07,1.0,4.6457,M,47.1053,M,3.0,0000*53
$GPVTG,63.24,T,63.31,M,2.38,N,4.41,K,D*2A
$GPGGA,102112.00,5314.1432553,N,00033.7806846,W,4,07,1.0,4.6405,M,47.1053,M,3.0,0000*51
$GPVTG,63.32,T,63.39,M,2.36,N,4.36,K,D*2B
$GPGGA,102112.05,5314.1432691,N,00033.7806380,W,4,07,1.0,4.6415,M,47.1053,M,2.9,0000*51
$GPVTG,63.51,T,63.57,M,2.29,N,4.24,K,D*2B
$GPGGA,102112.10,5314.1432846,N,00033.7805936,W,4,07,1.0,4.6358,M,47.1053,M,2.9,0000*5B
$GPVTG,60.34,T,60.41,M,2.26,N,4.18,K,D*2F
$GPGGA,102112.15,5314.1432976,N,00033.7805510,W,4,07,1.0,4.6307,M,47.1053,M,3.0,0000*56
$GPVTG,62.98,T,63.05,M,2.11,N,3.92,K,D*29
$GPGGA,102112.20,5314.1433076,N,00033.7805033,W,4,07,1.0,4.6392,M,47.1053,M,3.0,0000*50
$GPVTG,65.26,T,65.33,M,2.08,N,3.86,K,D*25
$GPGGA,102112.25,5314.1433172,N,00033.7804631,W,4,07,1.0,4.6353,M,47.1053,M,3.1,0000*59
$GPVTG,66.00,T,66.07,M,1.97,N,3.65,K,D*2E
$GPGGA,102112.30,5314.1433283,N,00033.7804206,W,4,07,1.0,4.6415,M,47.1053,M,3.1,0000*55
$GPVTG,69.24,T,69.31,M,1.89,N,3.50,K,D*24
$GPGGA,102112.35,5314.1433368,N,00033.7803755,W,4,07,1.0,4.6424,M,47.1053,M,3.2,0000*51
$GPVTG,71.85,T,71.92,M,1.91,N,3.54,K,D*2B
$GPGGA,102112.40,5314.1433419,N,00033.7803288,W,4,07,1.0,4.6284,M,47.1053,M,3.2,0000*5B
$GPVTG,73.66,T,73.73,M,1.89,N,3.51,K,D*25
$GPGGA,102112.45,5314.1433552,N,00033.7802778,W,4,07,1.0,4.6235,M,47.1053,M,3.3,0000*50
$GPVTG,74.10,T,74.16,M,2.14,N,3.96,K,D*2B
$GPGGA,102112.50,5314.1433589,N,00033.7802259,W,4,07,1.0,4.6138,M,47.1053,M,3.3,0000*5A
$GPVTG,77.92,T,77.99,M,2.27,N,4.20,K,D*2C
$GPGGA,102112.55,5314.1433719,N,00033.7801703,W,4,07,1.0,4.6085,M,47.1053,M,2.7,0000*5F
$GPVTG,75.10,T,75.17,M,2.44,N,4.52,K,D*20
$GPGGA,102112.60,5314.1433781,N,00033.7801151,W,4,07,1.0,4.5994,M,47.1053,M,2.7,0000*53
$GPVTG,75.65,T,75.72,M,2.60,N,4.81,K,D*29
$GPGGA,102112.65,5314.1433873,N,00033.7800565,W,4,07,1.0,4.6143,M,47.1053,M,2.8,0000*58
$GPVTG,78.44,T,78.51,M,2.61,N,4.84,K,D*2F
$GPGGA,102112.70,5314.1433995,N,00033.7799916,W,4,07,1.0,4.6264,M,47.1053,M,2.8,0000*54
$GPVTG,74.68,T,74.75,M,2.84,N,5.26,K,D*25
$GPGGA,102112.75,5314.1434071,N,00033.7799399,W,4,07,1.0,4.6304,M,47.1053,M,2.9,0000*5E
$GPVTG,77.59,T,77.65,M,2.72,N,5.03,K,D*28
$GPGGA,102112.80,5314.1434154,N,00033.7798894,W,4,07,1.0,4.6412,M,47.1053,M,2.9,0000*55
$GPVTG,76.33,T,76.40,M,2.60,N,4.82,K,D*28
$GPGGA,102112.85,5314.1434230,N,00033.7798410,W,4,07,1.0,4.6391,M,47.1053,M,3.0,0000*55
$GPVTG,72.83,T,72.90,M,2.42,N,4.48,K,D*28
$GPGGA,102112.90,5314.1434320,N,00033.7797963,W,4,07,1.0,4.6475,M,47.1053,M,3.0,0000*5A
$GPVTG,74.35,T,74.42,M,2.03,N,3.76,K,D*25
$GPGGA,102112.95,5314.1434385,N,00033.7797443,W,4,07,1.0,4.6552,M,47.1053,M,3.1,0000*5A
$GPVTG,74.43,T,74.49,M,2.02,N,3.75,K,D*2D
$GPGGA,102113.00,5314.1434456,N,00033.7796955,W,4,07,1.0,4.6442,M,47.1053,M,3.1,0000*55
$GPVTG,73.91,T,73.98,M,2.00,N,3.71,K,D*28
$GPGGA,102113.05,5314.1434561,N,00033.7796446,W,4,07,1.0,4.6441,M,47.1053,M,3.2,0000*5A
$GPVTG,75.15,T,75.22,M,2.12,N,3.93,K,D*2A
$GPGGA,102113.10,5314.1434659,N,00033.7795935,W,4,07,1.0,4.6301,M,47.1053,M,2.5,0000*59
$GPVTG,73.40,T,73.47,M,2.32,N,4.30,K,D*25
$GPGGA,102113.15,5314.1434744,N,00033.7795439,W,4,07,1.0,4.6150,M,47.1053,M,2.6,0000*55
$GPVTG,70.92,T,70.99,M,2.31,N,4.27,K,D*2C
$GPGGA,102113.20,5314.1434812,N,00033.7794945,W,4,07,1.0,4.6161,M,47.1053,M,2.6,0000*5A
$GPVTG,73.21,T,73.28,M,2.31,N,4.27,K,D*2E
$GPGGA,102113.25,5314.1434885,N,00033.7794451,W,4,07,1.0,4.6180,M,47.1053,M,2.7,0000*57
$GPVTG,75.78,T,75.85,M,2.24,N,4.14,K,D*21
$GPGGA,102113.30,5314.1434943,N,00033.7793978,W,4,07,1.0,4.6171,M,47.1053,M,2.7,0000*57
$GPVTG,78.22,T,78.29,M,2.11,N,3.90,K,D*25
$GPGGA,102113.35,5314.1434994,N,00033.7793523,W,4,07,1.0,4.6236,M,47.1053,M,2.8,0000*55
$GPVTG,81.83,T,81.90,M,2.03,N,3.76,K,D*27
$GPGGA,102113.40,5314.1435054,N,00033.7793085,W,4,07,1.0,4.6236,M,47.1053,M,2.8,0000*5A
$GPVTG,80.13,T,80.20,M,1.94,N,3.59,K,D*25
$GPGGA,102113.45,5314.1435135,N,00033.7792661,W,4,07,1.0,4.6314,M,47.1053,M,2.9,0000*54
$GPVTG,77.70,T,77.77,M,1.84,N,3.40,K,D*2B
$GPGGA,102113.50,5314.1435168,N,00033.7792157,W,4,07,1.0,4.6267,M,47.1053,M,2.9,0000*5F
$GPVTG,79.35,T,79.42,M,1.91,N,3.54,K,D*2D
$GPGGA,102113.55,5314.1435224,N,00033.7791607,W,4,07,1.0,4.6244,M,47.1053,M,2.8,0000*50
$GPVTG,78.99,T,79.06,M,2.11,N,3.91,K,D*28
$GPGGA,102113.60,5314.1435284,N,00033.7791082,W,4,07,1.0,4.6170,M,47.1053,M,2.8,0000*53
$GPVTG,81.25,T,81.32,M,2.30,N,4.26,K,D*21
$GPGGA,102113.65,5314.1435355,N,00033.7790474,W,4,07,1.0,4.6079,M,47.1053,M,2.9,0000*5E
$GPVTG,82.58,T,82.65,M,2.62,N,4.86,K,D*24
$GPGGA,102113.70,5314.1435430,N,00033.7789877,W,4,07,1.0,4.6061,M,47.1053,M,2.9,0000*50
$GPVTG,80.86,T,80.93,M,2.76,N,5.12,K,D*27
$GPGGA,102113.75,5314.1435502,N,00033.7789220,W,4,07,1.0,4.5999,M,47.1053,M,3.0,0000*58
$GPVTG,80.02,T,80.09,M,2.89,N,5.35,K,D*2D
$GPGGA,102113.80,5314.1435556,N,00033.7788596,W,4,07,1.0,4.6009,M,47.1053,M,3.0,0000*5B
$GPVTG,80.30,T,80.37,M,2.97,N,5.50,K,D*2D
$GPGGA,102113.85,5314.1435621,N,00033.7787961,W,4,07,1.0,4.6078,M,47.1053,M,3.1,0000*51
$GPVTG,79.99,T,80.06,M,2.91,N,5.38,K,D*22
$GPGGA,102113.90,5314.1435651,N,00033.7787391,W,4,07,1.0,4.6200,M,47.1053,M,3.1,0000*5A
$GPVTG,82.11,T,82.18,M,2.79,N,5.16,K,D*21
$GPGGA,102113.95,5314.1435691,N,00033.7786809,W,4,07,1.0,4.6252,M,47.1053,M,3.2,0000*5C
$GPVTG,83.73,T,83.79,M,2.60,N,4.82,K,D*26
$GPGGA,102114.00,5314.1435759,N,00033.7786302,W,4,07,1.0,4.6371,M,47.1053,M,3.2,0000*52
$GPVTG,81.84,T,81.91,M,2.37,N,4.39,K,D*2A
$GPGGA,102114.05,5314.1435858,N,00033.7785810,W,4,07,1.0,4.6445,M,47.1053,M,2.6,0000*57
$GPVTG,79.38,T,79.45,M,2.19,N,4.06,K,D*24
$GPGGA,102114.10,5314.1435940,N,00033.7785302,W,4,07,1.0,4.6433,M,47.1053,M,2.6,0000*52
$GPVTG,74.33,T,74.40,M,2.15,N,3.98,K,D*26
$GPGGA,102114.15,5314.1436040,N,00033.7784763,W,4,07,1.0,4.6520,M,47.1053,M,2.7,0000*5D
$GPVTG,69.77,T,69.84,M,2.17,N,4.02,K,D*28
$GPGGA,102114.20,5314.1436127,N,00033.7784269,W,4,07,1.0,4.6484,M,47.1053,M,2.7,0000*5B
$GPVTG,68.05,T,68.12,M,2.23,N,4.13,K,D*25
$GPGGA,102114.25,5314.1436234,N,00033.7783768,W,4,07,1.0,4.6475,M,47.1053,M,2.8,0000*5D
$GPVTG,68.96,T,69.03,M,2.30,N,4.25,K,D*29
$GPGGA,102114.30,5314.1436350,N,00033.7783270,W,4,07,1.0,4.6370,M,47.1053,M,2.8,0000*54
$GPVTG,68.25,T,68.32,M,2.32,N,4.30,K,D*24
$GPGGA,102114.35,5314.1436455,N,00033.7782764,W,4,07,1.0,4.6405,M,47.1053,M,2.9,0000*56
$GPVTG,68.82,T,68.89,M,2.29,N,4.23,K,D*21
$GPGGA,102114.40,5314.1436538,N,00033.7782306,W,4,07,1.0,4.6341,M,47.1053,M,2.9,0000*59
$GPVTG,69.81,T,69.88,M,2.22,N,4.11,K,D*29
$GPGGA,102114.45,5314.1436626,N,00033.7781838,W,4,07,1.0,4.6278,M,47.1053,M,3.0,0000*56
$GPVTG,70.12,T,70.19,M,2.14,N,3.95,K,D*25
$GPGGA,102114.50,5314.1436736,N,00033.7781374,W,4,07,1.0,4.6384,M,47.1053,M,3.0,0000*53
$GPVTG,71.33,T,71.40,M,2.06,N,3.82,K,D*2F
$GPGGA,102114.55,5314.1436822,N,00033.7780911,W,4,07,1.0,4.6455,M,47.1053,M,3.1,0000*5E
$GPVTG,71.80,T,71.87,M,2.01,N,3.73,K,D*25
$GPGGA,102114.60,5314.1436869,N,00033.7780473,W,4,07,1.0,4.6469,M,47.1053,M,3.1,0000*51
$GPVTG,73.35,T,73.42,M,1.98,N,3.67,K,D*24
$GPGGA,102114.65,5314.1436916,N,00033.7780034,W,4,07,1.0,4.6433,M,47.1053,M,3.2,0000*56
$GPVTG,75.93,T,76.00,M,1.95,N,3.60,K,D*27
$GPGGA,102114.70,5314.1436980,N,00033.7779541,W,4,07,1.0,4.6363,M,47.1053,M,3.2,0000*5E
$GPVTG,79.07,T,79.14,M,1.99,N,3.69,K,D*29
$GPGGA,102114.75,5314.1437053,N,00033.7779058,W,4,07,1.0,4.6336,M,47.1053,M,3.3,0000*51
$GPVTG,80.48,T,80.55,M,2.06,N,3.81,K,D*24
$GPGGA,102114.80,5314.1437099,N,00033.7778497,W,4,07,1.0,4.6225,M,47.1053,M,3.3,0000*58
$GPVTG,81.16,T,81.23,M,2.26,N,4.19,K,D*2A
$GPGGA,102114.85,5314.1437167,N,00033.7777941,W,4,07,1.0,4.6174,M,47.1053,M,3.4,0000*54
$GPVTG,80.72,T,80.79,M,2.48,N,4.59,K,D*2B
$GPGGA,102114.90,5314.1437230,N,00033.7777302,W,4,07,1.0,4.6148,M,47.1053,M,3.4,0000*53
$GPVTG,81.27,T,81.34,M,2.69,N,4.98,K,D*2C
$GPGGA,102114.95,5314.1437259,N,00033.7776687,W,4,07,1.0,4.6173,M,47.1053,M,3.5,0000*59
$GPVTG,83.16,T,83.22,M,2.84,N,5.27,K,D*2F
$GPGGA,102115.00,5314.1437297,N,00033.7776049,W,4,07,1.0,4.6140,M,47.1053,M,3.5,0000*52
$GPVTG,83.65,T,83.72,M,2.91,N,5.38,K,D*24
$GPGGA,102115.05,5314.1437366,N,00033.7775399,W,4,07,1.0,4.6282,M,47.1053,M,3.6,0000*5B
$GPVTG,83.87,T,83.94,M,2.95,N,5.46,K,D*2D
$GPGGA,102115.10,5314.1437459,N,00033.7774723,W,4,07,1.0,4.6425,M,47.1053,M,2.5,0000*59
$GPVTG,82.56,T,82.63,M,2.94,N,5.45,K,D*2B
$GPGGA,102115.15,5314.1437544,N,00033.7774201,W,4,07,1.0,4.6366,M,47.1053,M,2.6,0000*57
$GPVTG,78.20,T,78.27,M,2.81,N,5.20,K,D*2D
$GPGGA,102115.20,5314.1437650,N,00033.7773679,W,4,07,1.0,4.6453,M,47.1053,M,2.6,0000*5A
$GPVTG,74.33,T,74.40,M,2.63,N,4.87,K,D*2E
$GPGGA,102115.25,5314.1437706,N,00033.7773169,W,4,07,1.0,4.6375,M,47.1053,M,2.7,0000*59
$GPVTG,72.11,T,72.18,M,2.42,N,4.48,K,D*23
$GPGGA,102115.30,5314.1437825,N,00033.7772593,W,4,07,1.0,4.6363,M,47.1053,M,2.7,0000*54
$GPVTG,69.17,T,69.24,M,2.26,N,4.19,K,D*2C
$GPGGA,102115.35,5314.1437927,N,00033.7772058,W,4,07,1.0,4.6300,M,47.1053,M,2.8,0000*5A
$GPVTG,70.40,T,70.47,M,2.31,N,4.27,K,D*20
$GPGGA,102115.40,5314.1438018,N,00033.7771540,W,4,07,1.0,4.6233,M,47.1053,M,2.8,0000*5C
$GPVTG,72.21,T,72.28,M,2.32,N,4.29,K,D*23
$GPGGA,102115.45,5314.1438153,N,00033.7771027,W,4,07,1.0,4.6182,M,47.1053,M,2.9,0000*5B
$GPVTG,68.73,T,68.80,M,2.43,N,4.50,K,D*2E
$GPGGA,102115.50,5314.1438225,N,00033.7770553,W,4,07,1.0,4.6095,M,47.1053,M,2.9,0000*5D
$GPVTG,71.01,T,71.08,M,2.30,N,4.26,K,D*2E
$GPGGA,102115.55,5314.1438315,N,00033.7770068,W,4,07,1.0,4.6088,M,47.1053,M,3.0,0000*53
$GPVTG,70.98,T,71.05,M,2.19,N,4.05,K,D*28
$GPGGA,102115.60,5314.1438409,N,00033.7769597,W,4,07,1.0,4.6110,M,47.1053,M,2.5,0000*56
$GPVTG,70.77,T,70.84,M,2.11,N,3.92,K,D*20
$GPGGA,102115.65,5314.1438484,N,00033.7769116,W,4,07,1.0,4.6103,M,47.1053,M,2.6,0000*5A
$GPVTG,76.62,T,76.69,M,2.03,N,3.76,K,D*2E
$GPGGA,102115.70,5314.1438556,N,00033.7768653,W,4,07,1.0,4.6175,M,47.1053,M,2.6,0000*56
$GPVTG,76.23,T,76.30,M,2.03,N,3.75,K,D*24
$GPGGA,102115.75,5314.1438614,N,00033.7768225,W,4,07,1.0,4.6219,M,47.1053,M,2.7,0000*5B
$GPVTG,77.29,T,77.36,M,1.98,N,3.66,K,D*2B
$GPGGA,102115.80,5314.1438685,N,00033.7767753,W,4,07,1.0,4.6162,M,47.1053,M,2.7,0000*5D
$GPVTG,79.51,T,79.58,M,2.03,N,3.76,K,D*2C
$GPGGA,102115.85,5314.1438734,N,00033.7767245,W,4,07,1.0,4.6056,M,47.1053,M,2.8,0000*58
$GPVTG,77.92,T,77.99,M,2.03,N,3.76,K,D*2E
$GPGGA,102115.90,5314.1438862,N,00033.7766738,W,4,07,1.0,4.6138,M,47.1053,M,2.8,0000*57
$GPVTG,76.06,T,76.13,M,2.17,N,4.03,K,D*21
$GPGGA,102115.95,5314.1438920,N,00033.7766163,W,4,07,1.0,4.5909,M,47.1053,M,2.9,0000*55
$GPVTG,75.54,T,75.61,M,2.41,N,4.46,K,D*21
$GPGGA,102116.00,5314.1438996,N,00033.7765561,W,4,07,1.0,4.5874,M,47.1053,M,2.9,0000*59
$GPVTG,75.53,T,75.60,M,2.58,N,4.77,K,D*2D
$GPGGA,102116.05,5314.1439111,N,00033.7764859,W,4,07,1.0,4.5813,M,47.1053,M,3.0,0000*54
$GPVTG,75.39,T,75.46,M,2.96,N,5.48,K,D*2A
$GPGGA,102116.10,5314.1439141,N,00033.7764255,W,4,07,1.0,4.5761,M,47.1053,M,3.0,0000*59
$GPVTG,80.50,T,80.57,M,3.02,N,5.59,K,D*29
$GPGGA,102116.15,5314.1439258,N,00033.7763560,W,4,07,1.0,4.5781,M,47.1053,M,3.1,0000*5E
$GPVTG,79.92,T,79.99,M,3.17,N,5.86,K,D*23
$GPGGA,102116.20,5314.1439310,N,00033.7762866,W,4,07,1.0,4.5866,M,47.1053,M,3.1,0000*59
$GPVTG,80.98,T,81.05,M,3.24,N,5.99,K,D*23
$GPGGA,102116.25,5314.1439436,N,00033.7762230,W,4,07,1.0,4.5948,M,47.1053,M,3.2,0000*58
$GPVTG,80.43,T,80.50,M,3.01,N,5.58,K,D*2E
$GPGGA,102116.30,5314.1439542,N,00033.7761608,W,4,07,1.0,4.6054,M,47.1053,M,3.2,0000*55
$GPVTG,75.64,T,75.71,M,3.05,N,5.65,K,D*22
$GPGGA,102116.35,5314.1439622,N,00033.7761064,W,4,07,1.0,4.6111,M,47.1053,M,3.3,0000*58
$GPVTG,76.08,T,76.15,M,2.75,N,5.10,K,D*2E
$GPGGA,102116.40,5314.1439732,N,00033.7760464,W,4,07,1.0,4.6168,M,47.1053,M,3.3,0000*51
$GPVTG,71.16,T,71.23,M,2.60,N,4.82,K,D*2A
$GPGGA,102116.45,5314.1439830,N,00033.7759891,W,4,07,1.0,4.6146,M,47.1053,M,3.4,0000*5E
$GPVTG,71.60,T,71.67,M,2.50,N,4.64,K,D*20
$GPGGA,102116.50,5314.1439928,N,00033.7759314,W,4,07,1.0,4.6065,M,47.1053,M,3.4,0000*54
$GPVTG,72.78,T,72.85,M,2.40,N,4.45,K,D*27
$GPGGA,102116.55,5314.1440046,N,00033.7758773,W,4,07,1.0,4.6003,M,47.1053,M,2.6,0000*59
$GPVTG,70.22,T,70.29,M,2.47,N,4.58,K,D*25
$GPGGA,102116.60,5314.1440156,N,00033.7758217,W,4,07,1.0,4.5897,M,47.1053,M,2.6,0000*5E
$GPVTG,72.37,T,72.44,M,2.47,N,4.58,K,D*2A
$GPGGA,102116.65,5314.1440287,N,00033.7757673,W,4,07,1.0,4.5847,M,47.1053,M,2.7,0000*51
$GPVTG,70.31,T,70.38,M,2.49,N,4.62,K,D*20
$GPGGA,102116.70,5314.1440410,N,00033.7757138,W,4,07,1.0,4.5819,M,47.1053,M,2.7,0000*5E
$GPVTG,68.35,T,68.42,M,2.46,N,4.55,K,D*22
$GPGGA,102116.75,5314.1440520,N,00033.7756577,W,4,07,1.0,4.5878,M,47.1053,M,2.8,0000*5F
$GPVTG,69.87,T,69.94,M,2.47,N,4.58,K,D*2C
$GPGGA,102116.80,5314.1440618,N,00033.7755986,W,4,07,1.0,4.5797,M,47.1053,M,2.8,0000*52
$GPVTG,69.51,T,69.58,M,2.49,N,4.62,K,D*20
$GPGGA,102116.85,5314.1440711,N,00033.7755474,W,4,07,1.0,4.5946,M,47.1053,M,2.9,0000*5C
$GPVTG,73.18,T,73.25,M,2.45,N,4.54,K,D*2E
$GPGGA,102116.90,5314.1440797,N,00033.7754979,W,4,07,1.0,4.5999,M,47.1053,M,2.9,0000*55
$GPVTG,74.88,T,74.95,M,2.38,N,4.40,K,D*23
$GPGGA,102116.95,5314.1440868,N,00033.7754472,W,4,07,1.0,4.6002,M,47.1053,M,3.0,0000*59
$GPVTG,76.81,T,76.88,M,2.28,N,4.23,K,D*22
$GPGGA,102117.00,5314.1440947,N,00033.7753939,W,4,07,1.0,4.6028,M,47.1053,M,3.0,0000*55
$GPVTG,78.67,T,78.74,M,2.19,N,4.06,K,D*2C
$GPGGA,102117.05,5314.1441034,N,00033.7753358,W,4,07,1.0,4.5982,M,47.1053,M,3.1,0000*5A
$GPVTG,77.38,T,77.45,M,2.29,N,4.24,K,D*27
$GPGGA,102117.10,5314.1441117,N,00033.7752807,W,4,07,1.0,4.5791,M,47.1053,M,3.1,0000*52
$GPVTG,77.71,T,77.77,M,2.44,N,4.51,K,D*22
$GPGGA,102117.15,5314.1441211,N,00033.7752191,W,4,07,1.0,4.5801,M,47.1053,M,3.2,0000*51
$GPVTG,76.12,T,76.19,M,2.62,N,4.85,K,D*22
$GPGGA,102117.20,5314.1441300,N,00033.7751582,W,4,07,1.0,4.5743,M,47.1053,M,3.2,0000*5A
$GPVTG,76.46,T,76.53,M,2.79,N,5.17,K,D*2D
$GPGGA,102117.25,5314.1441358,N,00033.7750920,W,4,07,1.0,4.5733,M,47.1053,M,3.3,0000*51
$GPVTG,78.41,T,78.48,M,2.86,N,5.30,K,D*25
$GPGGA,102117.30,5314.1441450,N,00033.7750197,W,4,07,1.0,4.5743,M,47.1053,M,3.3,0000*59
$GPVTG,79.29,T,79.36,M,3.08,N,5.71,K,D*20
$GPGGA,102117.35,5314.1441564,N,00033.7749470,W,4,07,1.0,4.5745,M,47.1053,M,3.4,0000*5F
$GPVTG,78.92,T,78.99,M,3.23,N,5.98,K,D*2B
$GPGGA,102117.40,5314.1441634,N,00033.7748849,W,4,07,1.0,4.5852,M,47.1053,M,3.4,0000*55
$GPVTG,79.33,T,79.40,M,3.19,N,5.92,K,D*27
$GPGGA,102117.45,5314.1441699,N,00033.7748293,W,4,07,1.0,4.5887,M,47.1053,M,3.5,0000*53
$GPVTG,77.46,T,77.53,M,3.00,N,5.56,K,D*27
$GPGGA,102117.50,5314.1441796,N,00033.7747801,W,4,07,1.0,4.5929,M,47.1053,M,3.5,0000*52
$GPVTG,74.49,T,74.56,M,2.56,N,4.74,K,D*2E
$GPGGA,102117.55,5314.1441919,N,00033.7747302,W,4,07,1.0,4.5962,M,47.1053,M,2.7,0000*5A
$GPVTG,73.13,T,73.20,M,2.16,N,4.00,K,D*27
$GPGGA,102117.60,5314.1442002,N,00033.7746760,W,4,07,1.0,4.5883,M,47.1053,M,2.7,0000*53
$GPVTG,69.37,T,69.44,M,2.03,N,3.77,K,D*20
$GPGGA,102117.65,5314.1442125,N,00033.7746238,W,4,07,1.0,4.5889,M,47.1053,M,2.8,0000*5F
$GPVTG,67.27,T,67.34,M,2.09,N,3.86,K,D*22
$GPGGA,102117.70,5314.1442234,N,00033.7745718,W,4,07,1.0,4.5833,M,47.1053,M,2.8,0000*5D
$GPVTG,69.84,T,69.91,M,2.28,N,4.23,K,D*2F
$GPGGA,102117.75,5314.1442331,N,00033.7745221,W,4,07,1.0,4.5764,M,47.1053,M,2.9,0000*5F
$GPVTG,70.92,T,70.99,M,2.36,N,4.36,K,D*2B
$GPGGA,102117.80,5314.1442433,N,00033.7744764,W,4,07,1.0,4.5579,M,47.1053,M,2.9,0000*5B
$GPVTG,70.31,T,70.37,M,2.30,N,4.26,K,D*21
$GPGGA,102117.85,5314.1442548,N,00033.7744274,W,4,07,1.0,4.5576,M,47.1053,M,3.0,0000*50
$GPVTG,71.42,T,71.49,M,2.24,N,4.15,K,D*29
$GPGGA,102117.90,5314.1442664,N,00033.7743766,W,4,07,1.0,4.5665,M,47.1053,M,3.0,0000*59
$GPVTG,70.17,T,70.24,M,2.17,N,4.02,K,D*24
$GPGGA,102117.95,5314.1442747,N,00033.7743301,W,4,07,1.0,4.5634,M,47.1053,M,3.1,0000*5C
$GPVTG,70.43,T,70.50,M,2.13,N,3.95,K,D*2B
$GPGGA,102118.00,5314.1442814,N,00033.7742862,W,4,07,1.0,4.5752,M,47.1053,M,3.1,0000*58
$GPVTG,73.45,T,73.52,M,2.09,N,3.88,K,D*28
$GPGGA,102118.05,5314.1442904,N,00033.7742369,W,4,07,1.0,4.5665,M,47.1053,M,3.2,0000*5B
$GPVTG,74.30,T,74.37,M,2.11,N,3.91,K,D*28
$GPGGA,102118.10,5314.1442965,N,00033.7741907,W,4,07,1.0,4.5696,M,47.1053,M,2.5,0000*53
$GPVTG,76.90,T,76.97,M,2.02,N,3.74,K,D*21
$GPGGA,102118.15,5314.1443034,N,00033.7741387,W,4,07,1.0,4.5656,M,47.1053,M,2.6,0000*57
$GPVTG,77.21,T,77.28,M,2.09,N,3.87,K,D*28
$GPGGA,102118.20,5314.1443139,N,00033.7740853,W,4,07,1.0,4.5616,M,47.1053,M,2.6,0000*5A
$GPVTG,73.50,T,73.57,M,2.28,N,4.23,K,D*2C
$GPGGA,102118.25,5314.1443190,N,00033.7740310,W,4,07,1.0,4.5474,M,47.1053,M,2.7,0000*57
$GPVTG,75.54,T,75.61,M,2.31,N,4.29,K,D*2F
$GPGGA,102118.30,5314.1443266,N,00033.7739654,W,4,07,1.0,4.5510,M,47.1053,M,2.7,0000*51
$GPVTG,76.21,T,76.28,M,2.66,N,4.92,K,D*22
$GPGGA,102118.35,5314.1443352,N,00033.7739061,W,4,07,1.0,4.5512,M,47.1053,M,2.8,0000*5F
$GPVTG,76.83,T,76.90,M,2.76,N,5.12,K,D*21
$GPGGA,102118.40,5314.1443427,N,00033.7738417,W,4,07,1.0,4.5529,M,47.1053,M,2.8,0000*54
$GPVTG,79.75,T,79.81,M,2.88,N,5.33,K,D*2A
$GPGGA,102118.45,5314.1443495,N,00033.7737782,W,4,07,1.0,4.5707,M,47.1053,M,2.9,0000*57
$GPVTG,80.10,T,80.16,M,3.03,N,5.61,K,D*22
$GPGGA,102118.50,5314.1443600,N,00033.7737158,W,4,07,1.0,4.5811,M,47.1053,M,2.9,0000*54
$GPVTG,77.81,T,77.88,M,2.90,N,5.36,K,D*24
$GPGGA,102118.55,5314.1443653,N,00033.7736587,W,4,07,1.0,4.5823,M,47.1053,M,3.0,0000*59
$GPVTG,78.58,T,78.65,M,2.80,N,5.19,K,D*2F
$GPGGA,102118.60,5314.1443764,N,00033.7736138,W,4,07,1.0,4.5914,M,47.1053,M,3.0,0000*5F
$GPVTG,75.83,T,75.90,M,2.51,N,4.66,K,D*26
$GPGGA,102118.65,5314.1443853,N,00033.7735620,W,4,07,1.0,4.5874,M,47.1053,M,3.1,0000*5A
$GPVTG,71.76,T,71.83,M,2.28,N,4.22,K,D*20
$GPGGA,102118.70,5314.1443928,N,00033.7735115,W,4,07,1.0,4.5854,M,47.1053,M,3.1,0000*50
$GPVTG,73.47,T,73.54,M,2.10,N,3.89,K,D*25
$GPGGA,102118.75,5314.1444016,N,00033.7734588,W,4,07,1.0,4.5880,M,47.1053,M,3.2,0000*5D
$GPVTG,70.08,T,70.15,M,2.06,N,3.81,K,D*24
$GPGGA,102118.80,5314.1444124,N,00033.7734026,W,4,07,1.0,4.5819,M,47.1053,M,3.2,0000*56
$GPVTG,72.21,T,72.27,M,2.30,N,4.25,K,D*22
$GPGGA,102118.85,5314.1444226,N,00033.7733535,W,4,07,1.0,4.5747,M,47.1053,M,3.3,0000*57
$GPVTG,72.73,T,72.79,M,2.34,N,4.34,K,D*2A
$GPGGA,102118.90,5314.1444331,N,00033.7733003,W,4,07,1.0,4.5678,M,47.1053,M,3.3,0000*59
$GPVTG,71.69,T,71.76,M,2.48,N,4.59,K,D*2E
$GPGGA,102118.95,5314.1444418,N,00033.7732531,W,4,07,1.0,4.5622,M,47.1053,M,3.4,0000*5D
$GPVTG,72.27,T,72.34,M,2.44,N,4.52,K,D*25
$GPGGA,102119.00,5314.1444507,N,00033.7732034,W,4,07,1.0,4.5561,M,47.1053,M,3.4,0000*5B
$GPVTG,71.72,T,71.79,M,2.24,N,4.15,K,D*29
$GPGGA,102119.05,5314.1444623,N,00033.7731472,W,4,07,1.0,4.5653,M,47.1053,M,3.5,0000*5D
$GPVTG,72.01,T,72.08,M,2.34,N,4.33,K,D*2E
$GPGGA,102119.10,5314.1444719,N,00033.7730961,W,4,07,1.0,4.5742,M,47.1053,M,2.8,0000*52
$GPVTG,72.38,T,72.45,M,2.26,N,4.18,K,D*27
$GPGGA,102119.15,5314.1444828,N,00033.7730429,W,4,07,1.0,4.5771,M,47.1053,M,2.9,0000*5A
$GPVTG,71.92,T,71.98,M,2.38,N,4.40,K,D*25
$GPGGA,102119.20,5314.1444881,N,00033.7729964,W,4,07,1.0,4.5759,M,47.1053,M,2.9,0000*59
$GPVTG,73.31,T,73.38,M,2.34,N,4.34,K,D*29
$GPGGA,102119.25,5314.1444985,N,00033.7729455,W,4,07,1.0,4.5679,M,47.1053,M,3.0,0000*5D
$GPVTG,73.19,T,73.26,M,2.25,N,4.17,K,D*2D
$GPGGA,102119.30,5314.1445069,N,00033.7728909,W,4,07,1.0,4.5577,M,47.1053,M,3.0,0000*5B
$GPVTG,74.16,T,74.23,M,2.31,N,4.27,K,D*21
$GPGGA,102119.35,5314.1445186,N,00033.7728336,W,4,07,1.0,4.5617,M,47.1053,M,3.1,0000*5C
$GPVTG,75.09,T,75.16,M,2.36,N,4.37,K,D*2F
$GPGGA,102119.40,5314.1445262,N,00033.7727718,W,4,07,1.0,4.5503,M,47.1053,M,3.1,0000*56
$GPVTG,75.36,T,75.43,M,2.64,N,4.88,K,D*20
$GPGGA,102119.45,5314.1445343,N,00033.7727097,W,4,07,1.0,4.5476,M,47.1053,M,3.2,0000*51
$GPVTG,77.54,T,77.61,M,2.82,N,5.22,K,D*2D
$GPGGA,102119.50,5314.1445422,N,00033.7726483,W,4,07,1.0,4.5472,M,47.1053,M,3.2,0000*51
$GPVTG,77.76,T,77.83,M,2.88,N,5.34,K,D*2C
$GPGGA,102119.55,5314.1445512,N,00033.7725854,W,4,07,1.0,4.5535,M,47.1053,M,3.3,0000*50
$GPVTG,78.62,T,78.69,M,2.90,N,5.37,K,D*27
$GPGGA,102119.60,5314.1445597,N,00033.7725233,W,4,07,1.0,4.5574,M,47.1053,M,3.3,0000*55
$GPVTG,78.42,T,78.49,M,2.84,N,5.26,K,D*22
$GPGGA,102119.65,5314.1445670,N,00033.7724659,W,4,07,1.0,4.5642,M,47.1053,M,3.4,0000*52
$GPVTG,77.46,T,77.53,M,2.70,N,5.00,K,D*22
$GPGGA,102119.70,5314.1445767,N,00033.7724113,W,4,07,1.0,4.5733,M,47.1053,M,3.4,0000*5F
$GPVTG,76.61,T,76.68,M,2.61,N,4.84,K,D*22
$GPGGA,102119.75,5314.1445844,N,00033.7723572,W,4,07,1.0,4.5754,M,47.1053,M,3.5,0000*50
$GPVTG,75.85,T,75.92,M,2.44,N,4.52,K,D*21
$GPGGA,102119.80,5314.1445905,N,00033.7723040,W,4,07,1.0,4.5733,M,47.1053,M,3.5,0000*5B
$GPVTG,75.86,T,75.93,M,2.30,N,4.26,K,D*23
$GPGGA,102119.85,5314.1446003,N,00033.7722497,W,4,07,1.0,4.5711,M,47.1053,M,3.6,0000*5E
$GPVTG,74.32,T,74.39,M,2.29,N,4.23,K,D*21
$GPGGA,102119.90,5314.1446116,N,00033.7721964,W,4,07,1.0,4.5727,M,47.1053,M,3.6,0000*58
$GPVTG,72.71,T,72.78,M,2.27,N,4.20,K,D*2E
$GPGGA,102119.95,5314.1446174,N,00033.7721421,W,4,07,1.0,4.5684,M,47.1053,M,3.7,0000*5C
$GPVTG,74.60,T,74.67,M,2.33,N,4.31,K,D*25
$GPGGA,102120.00,5314.1446262,N,00033.7720902,W,4,07,1.0,4.5600,M,47.1053,M,3.7,0000*5F
$GPVTG,71.99,T,72.05,M,2.35,N,4.35,K,D*26
$GPGGA,102120.05,5314.1446371,N,00033.7720387,W,4,07,1.0,4.5563,M,47.1053,M,2.7,0000*59
$GPVTG,72.54,T,72.61,M,2.35,N,4.35,K,D*26
$GPGGA,102120.10,5314.1446482,N,00033.7719859,W,4,07,1.0,4.5519,M,47.1053,M,2.7,0000*59
$GPVTG,73.21,T,73.28,M,2.36,N,4.38,K,D*27
$GPGGA,102120.15,5314.1446561,N,00033.7719352,W,4,07,1.0,4.5460,M,47.1053,M,2.8,0000*50
$GPVTG,72.00,T,72.07,M,2.34,N,4.33,K,D*20
$GPGGA,102120.20,5314.1446645,N,00033.7718839,W,4,07,1.0,4.5441,M,47.1053,M,2.8,0000*57
$GPVTG,73.60,T,73.67,M,2.35,N,4.36,K,D*24
$GPGGA,102120.25,5314.1446710,N,00033.7718357,W,4,07,1.0,4.5481,M,47.1053,M,2.9,0000*5D
$GPVTG,74.65,T,74.72,M,2.23,N,4.13,K,D*25
$GPGGA,102120.30,5314.1446747,N,00033.7717925,W,4,07,1.0,4.5385,M,47.1053,M,2.9,0000*58
$GPVTG,78.70,T,78.77,M,2.04,N,3.78,K,D*2B
$GPGGA,102120.35,5314.1446813,N,00033.7717443,W,4,07,1.0,4.5484,M,47.1053,M,3.0,0000*50
$GPVTG,79.62,T,79.69,M,1.98,N,3.66,K,D*2E
$GPGGA,102120.40,5314.1446889,N,00033.7716903,W,4,07,1.0,4.5462,M,47.1053,M,3.0,0000*51
$GPVTG,80.23,T,80.30,M,2.02,N,3.74,K,D*24
$GPGGA,102120.45,5314.1446930,N,00033.7716371,W,4,07,1.0,4.5334,M,47.1053,M,3.1,0000*5D
$GPVTG,82.26,T,82.33,M,2.16,N,4.01,K,D*22
$GPGGA,102120.50,5314.1447030,N,00033.7715775,W,4,07,1.0,4.5325,M,47.1053,M,3.1,0000*52
$GPVTG,78.73,T,78.80,M,2.51,N,4.65,K,D*2B
$GPGGA,102120.55,5314.1447098,N,00033.7715151,W,4,07,1.0,4.5118,M,47.1053,M,2.7,0000*5E
$GPVTG,78.87,T,78.94,M,2.77,N,5.14,K,D*26
$GPGGA,102120.60,5314.1447131,N,00033.7714571,W,4,07,1.0,4.5094,M,47.1053,M,2.7,0000*58
$GPVTG,81.47,T,81.54,M,2.80,N,5.18,K,D*22
$GPGGA,102120.65,5314.1447169,N,00033.7713904,W,4,07,1.0,4.4967,M,47.1053,M,2.8,0000*52
$GPVTG,81.29,T,81.36,M,2.99,N,5.53,K,D*29
$GPGGA,102120.70,5314.1447200,N,00033.7713246,W,4,07,1.0,4.4963,M,47.1053,M,2.8,0000*53
$GPVTG,85.16,T,85.22,M,2.93,N,5.43,K,D*2B
$GPGGA,102120.75,5314.1447275,N,00033.7712586,W,4,07,1.0,4.5098,M,47.1053,M,2.9,0000*53
$GPVTG,84.46,T,84.53,M,2.89,N,5.36,K,D*21
$GPGGA,102120.80,5314.1447378,N,00033.7711931,W,4,07,1.0,4.5247,M,47.1053,M,2.9,0000*56
$GPVTG,80.32,T,80.39,M,3.01,N,5.58,K,D*27
$GPGGA,102120.85,5314.1447477,N,00033.7711316,W,4,07,1.0,4.5450,M,47.1053,M,3.0,0000*5C
$GPVTG,77.00,T,77.07,M,2.91,N,5.39,K,D*24
$GPGGA,102120.90,5314.1447595,N,00033.7710818,W,4,07,1.0,4.5590,M,47.1053,M,3.0,0000*5C
$GPVTG,71.04,T,71.11,M,2.74,N,5.07,K,D*21
$GPGGA,102120.95,5314.1447663,N,00033.7710258,W,4,07,1.0,4.5588,M,47.1053,M,3.1,0000*55
$GPVTG,69.72,T,69.79,M,2.61,N,4.84,K,D*20
$GPGGA,102121.00,5314.1447772,N,00033.7709639,W,4,07,1.0,4.5625,M,47.1053,M,3.1,0000*56
$GPVTG,69.62,T,69.69,M,2.50,N,4.62,K,D*2A
$GPGGA,102121.05,5314.1447898,N,00033.7709098,W,4,07,1.0,4.5621,M,47.1053,M,3.2,0000*52
$GPVTG,68.98,T,69.05,M,2.41,N,4.47,K,D*23
$GPGGA,102121.10,5314.1447985,N,00033.7708533,W,4,07,1.0,4.5549,M,47.1053,M,3.0,0000*51
$GPVTG,72.63,T,72.70,M,2.50,N,4.63,K,D*22
$GPGGA,102121.15,5314.1448130,N,00033.7707956,W,4,07,1.0,4.5520,M,47.1053,M,3.1,0000*53
$GPVTG,70.15,T,70.22,M,2.61,N,4.83,K,D*28
$GPGGA,102121.20,5314.1448256,N,00033.7707429,W,4,07,1.0,4.5459,M,47.1053,M,3.1,0000*5C
$GPVTG,68.18,T,68.25,M,2.50,N,4.63,K,D*2E
$GPGGA,102121.25,5314.1448349,N,00033.7706874,W,4,07,1.0,4.5359,M,47.1053,M,3.2,0000*57
$GPVTG,69.37,T,69.44,M,2.49,N,4.61,K,D*2E
$GPGGA,102121.30,5314.1448485,N,00033.7706326,W,4,07,1.0,4.5439,M,47.1053,M,3.2,0000*59
$GPVTG,67.58,T,67.64,M,2.49,N,4.62,K,D*26
$GPGGA,102121.35,5314.1448605,N,00033.7705832,W,4,07,1.0,4.5504,M,47.1053,M,3.3,0000*55
$GPVTG,69.48,T,69.55,M,2.33,N,4.31,K,D*2E
$GPGGA,102121.40,5314.1448668,N,00033.7705363,W,4,07,1.0,4.5324,M,47.1053,M,3.3,0000*57
$GPVTG,72.82,T,72.89,M,2.26,N,4.18,K,D*26
$GPGGA,102121.45,5314.1448793,N,00033.7704834,W,4,07,1.0,4.5548,M,47.1053,M,3.4,0000*54
$GPVTG,73.90,T,73.97,M,2.21,N,4.09,K,D*2D
$GPGGA,102121.50,5314.1448895,N,00033.7704281,W,4,07,1.0,4.5524,M,47.1053,M,3.4,0000*57
$GPVTG,74.48,T,74.55,M,2.21,N,4.09,K,D*26
$GPGGA,102121.55,5314.1448992,N,00033.7703705,W,4,07,1.0,4.5446,M,47.1053,M,2.8,0000*52
$GPVTG,74.73,T,74.80,M,2.37,N,4.40,K,D*2C
$GPGGA,102121.60,5314.1449087,N,00033.7703137,W,4,07,1.0,4.5293,M,47.1053,M,2.8,0000*51
$GPVTG,73.71,T,73.78,M,2.60,N,4.81,K,D*26
$GPGGA,102121.65,5314.1449203,N,00033.7702488,W,4,07,1.0,4.5212,M,47.1053,M,2.9,0000*52
$GPVTG,73.13,T,73.20,M,2.80,N,5.18,K,D*20
$GPGGA,102121.70,5314.1449293,N,00033.7701854,W,4,07,1.0,4.5059,M,47.1053,M,2.9,0000*5C
$GPVTG,74.04,T,74.11,M,2.93,N,5.42,K,D*29
$GPGGA,102121.75,5314.1449418,N,00033.7701173,W,4,07,1.0,4.4967,M,47.1053,M,3.0,0000*5D
$GPVTG,73.85,T,73.92,M,3.06,N,5.66,K,D*20
$GPGGA,102121.80,5314.1449560,N,00033.7700486,W,4,07,1.0,4.5005,M,47.1053,M,3.0,0000*5B
$GPVTG,73.03,T,73.09,M,3.19,N,5.90,K,D*2B
$GPGGA,102121.85,5314.1449664,N,00033.7699815,W,4,07,1.0,4.5027,M,47.1053,M,3.1,0000*5F
$GPVTG,74.28,T,74.35,M,3.18,N,5.89,K,D*24
$GPGGA,102121.90,5314.1449784,N,00033.7699158,W,4,07,1.0,4.4982,M,47.1053,M,3.1,0000*53
$GPVTG,73.35,T,73.42,M,3.19,N,5.92,K,D*23
$GPGGA,102121.95,5314.1449925,N,00033.7698470,W,4,07,1.0,4.5045,M,47.1053,M,3.2,0000*5D
$GPVTG,72.96,T,73.03,M,3.17,N,5.88,K,D*2B
$GPGGA,102122.00,5314.1450072,N,00033.7697853,W,4,07,1.0,4.5157,M,47.1053,M,3.2,0000*51
$GPVTG,72.66,T,72.73,M,3.04,N,5.63,K,D*25
$GPGGA,102122.05,5314.1450223,N,00033.7697299,W,4,07,1.0,4.5202,M,47.1053,M,3.3,0000*5C
$GPVTG,68.16,T,68.23,M,2.89,N,5.35,K,D*20
$GPGGA,102122.10,5314.1450390,N,00033.7696695,W,4,07,1.0,4.5185,M,47.1053,M,2.6,0000*50
$GPVTG,65.16,T,65.23,M,2.82,N,5.23,K,D*2C
$GPGGA,102122.15,5314.1450545,N,00033.7696105,W,4,07,1.0,4.5230,M,47.1053,M,2.7,0000*59
$GPVTG,63.24,T,63.31,M,2.66,N,4.93,K,D*2E
$GPGGA,102122.20,5314.1450716,N,00033.7695493,W,4,07,1.0,4.5113,M,47.1053,M,2.7,0000*50
$GPVTG,61.29,T,61.36,M,2.69,N,4.98,K,D*20
$GPGGA,102122.25,5314.1450888,N,00033.7694905,W,4,07,1.0,4.5092,M,47.1053,M,2.8,0000*59
$GPVTG,63.91,T,63.98,M,2.79,N,5.17,K,D*20
$GPGGA,102122.30,5314.1451025,N,00033.7694365,W,4,07,1.0,4.4914,M,47.1053,M,2.8,0000*59
$GPVTG,64.95,T,65.02,M,2.68,N,4.96,K,D*2E
$GPGGA,102122.35,5314.1451167,N,00033.7693845,W,4,07,1.0,4.4794,M,47.1053,M,2.9,0000*52
$GPVTG,64.69,T,64.76,M,2.62,N,4.85,K,D*27
$GPGGA,102122.40,5314.1451342,N,00033.7693301,W,4,07,1.0,4.4841,M,47.1053,M,2.9,0000*59
$GPVTG,65.62,T,65.69,M,2.51,N,4.66,K,D*2F
$GPGGA,102122.45,5314.1451466,N,00033.7692791,W,4,07,1.0,4.4917,M,47.1053,M,3.0,0000*5B
$GPVTG,65.79,T,65.86,M,2.30,N,4.27,K,D*26
$GPGGA,102122.50,5314.1451571,N,00033.7692245,W,4,07,1.0,4.4975,M,47.1053,M,3.0,0000*50
$GPVTG,68.85,T,68.92,M,2.32,N,4.30,K,D*24
$GPGGA,102122.55,5314.1451677,N,00033.7691762,W,4,07,1.0,4.5106,M,47.1053,M,3.1,0000*5F
$GPVTG,71.33,T,71.40,M,2.27,N,4.21,K,D*22
$GPGGA,102122.60,5314.1451747,N,00033.7691229,W,4,07,1.0,4.5100,M,47.1053,M,2.7,0000*50
$GPVTG,76.50,T,76.57,M,2.25,N,4.17,K,D*26
$GPGGA,102122.65,5314.1451853,N,00033.7690677,W,4,07,1.0,4.5108,M,47.1053,M,2.8,0000*56
$GPVTG,77.25,T,77.32,M,2.38,N,4.41,K,D*28
$GPGGA,102122.70,5314.1451910,N,00033.7690109,W,4,07,1.0,4.4902,M,47.1053,M,2.8,0000*59
$GPVTG,78.27,T,78.34,M,2.41,N,4.46,K,D*25
$GPGGA,102122.75,5314.1451962,N,00033.7689528,W,4,07,1.0,4.4840,M,47.1053,M,2.9,0000*50
$GPVTG,80.78,T,80.85,M,2.55,N,4.73,K,D*26
$GPGGA,102122.80,5314.1452034,N,00033.7688942,W,4,07,1.0,4.4703,M,47.1053,M,2.9,0000*5A
$GPVTG,78.84,T,78.91,M,2.62,N,4.84,K,D*2C
$GPGGA,102122.85,5314.1452112,N,00033.7688286,W,4,07,1.0,4.4599,M,47.1053,M,3.0,0000*50
$GPVTG,81.47,T,81.54,M,2.77,N,5.13,K,D*21
$GPGGA,102122.90,5314.1452157,N,00033.7687653,W,4,07,1.0,4.4417,M,47.1053,M,3.0,0000*51
$GPVTG,81.80,T,81.87,M,2.86,N,5.30,K,D*2B
$GPGGA,102122.95,5314.1452244,N,00033.7686912,W,4,07,1.0,4.4432,M,47.1053,M,3.1,0000*58
$GPVTG,80.66,T,80.73,M,3.10,N,5.75,K,D*27
$GPGGA,102123.00,5314.1452346,N,00033.7686127,W,4,07,1.0,4.4549,M,47.1053,M,3.1,0000*55
$GPVTG,80.69,T,80.76,M,3.46,N,6.40,K,D*2B
$GPGGA,102123.05,5314.1452489,N,00033.7685465,W,4,07,1.0,4.4874,M,47.1053,M,3.2,0000*54
$GPVTG,77.42,T,77.49,M,3.37,N,6.24,K,D*2A
$GPGGA,102123.10,5314.1452561,N,00033.7684855,W,4,07,1.0,4.4874,M,47.1052,M,2.7,0000*5C
$GPVTG,75.65,T,75.72,M,3.35,N,6.20,K,D*21
$GPGGA,102123.15,5314.1452662,N,00033.7684216,W,4,07,1.0,4.4906,M,47.1052,M,2.8,0000*5F
$GPVTG,73.31,T,73.38,M,3.09,N,5.73,K,D*24
$GPGGA,102123.20,5314.1452778,N,00033.7683646,W,4,07,1.0,4.4944,M,47.1052,M,2.8,0000*53
$GPVTG,70.20,T,70.27,M,2.69,N,4.98,K,D*29
$GPGGA,102123.25,5314.1452906,N,00033.7683004,W,4,07,1.0,4.4946,M,47.1052,M,2.9,0000*52
$GPVTG,72.40,T,72.47,M,2.62,N,4.86,K,D*2D
$GPGGA,102123.30,5314.1453027,N,00033.7682404,W,4,07,1.0,4.4819,M,47.1052,M,2.9,0000*53
$GPVTG,70.04,T,70.11,M,2.62,N,4.86,K,D*2E
$GPGGA,102123.35,5314.1453145,N,00033.7681786,W,4,07,1.0,4.4734,M,47.1052,M,3.0,0000*51
$GPVTG,69.94,T,70.01,M,2.66,N,4.93,K,D*2E
$GPGGA,102123.40,5314.1453274,N,00033.7681244,W,4,07,1.0,4.4653,M,47.1052,M,3.0,0000*59
$GPVTG,69.44,T,69.51,M,2.67,N,4.95,K,D*29
$GPGGA,102123.45,5314.1453382,N,00033.7680693,W,4,07,1.0,4.4624,M,47.1052,M,3.1,0000*5A
$GPVTG,68.29,T,68.35,M,2.53,N,4.69,K,D*24
$GPGGA,102123.50,5314.1453496,N,00033.7680180,W,4,07,1.0,4.4660,M,47.1052,M,3.1,0000*59
$GPVTG,69.18,T,69.25,M,2.39,N,4.43,K,D*23
$GPGGA,102123.55,5314.1453573,N,00033.7679656,W,4,07,1.0,4.4627,M,47.1052,M,2.5,0000*5A
$GPVTG,71.10,T,71.17,M,2.23,N,4.13,K,D*24
$GPGGA,102123.60,5314.1453700,N,00033.7679108,W,4,07,1.0,4.4732,M,47.1052,M,2.5,0000*53
$GPVTG,72.96,T,73.03,M,2.28,N,4.23,K,D*26
$GPGGA,102123.65,5314.1453741,N,00033.7678621,W,4,07,1.0,4.4792,M,47.1052,M,2.6,0000*57
$GPVTG,76.36,T,76.43,M,2.19,N,4.06,K,D*2C
$GPGGA,102123.70,5314.1453842,N,00033.7678127,W,4,07,1.0,4.4780,M,47.1052,M,2.6,0000*5D
$GPVTG,76.74,T,76.81,M,2.22,N,4.11,K,D*2A
$GPGGA,102123.75,5314.1453945,N,00033.7677642,W,4,07,1.0,4.4742,M,47.1052,M,2.7,0000*5A
$GPVTG,74.15,T,74.22,M,2.23,N,4.13,K,D*27
$GPGGA,102123.80,5314.1454029,N,00033.7677102,W,4,07,1.0,4.4635,M,47.1052,M,2.7,0000*56
$GPVTG,75.06,T,75.13,M,2.18,N,4.03,K,D*2E
$GPGGA,102123.85,5314.1454159,N,00033.7676515,W,4,07,1.0,4.4578,M,47.1052,M,2.8,0000*53
$GPVTG,70.81,T,70.88,M,2.45,N,4.53,K,D*2E
$GPGGA,102123.90,5314.1454241,N,00033.7675948,W,4,07,1.0,4.4366,M,47.1052,M,2.8,0000*53
$GPVTG,71.81,T,71.88,M,2.55,N,4.72,K,D*2C
$GPGGA,102123.95,5314.1454344,N,00033.7675298,W,4,07,1.0,4.4326,M,47.1052,M,2.9,0000*51
$GPVTG,74.31,T,74.38,M,2.79,N,5.17,K,D*20
$GPGGA,102124.00,5314.1454427,N,00033.7674684,W,4,07,1.0,4.4097,M,47.1052,M,2.9,0000*59
$GPVTG,74.71,T,74.78,M,2.93,N,5.43,K,D*25
$GPGGA,102124.05,5314.1454534,N,00033.7674035,W,4,07,1.0,4.4157,M,47.1052,M,3.0,0000*56
$GPVTG,77.53,T,77.60,M,2.94,N,5.44,K,D*2C
$GPGGA,102124.10,5314.1454701,N,00033.7673326,W,4,07,1.0,4.4321,M,47.1052,M,2.8,0000*5A
$GPVTG,74.88,T,74.95,M,3.14,N,5.81,K,D*20
$GPGGA,102124.15,5314.1454834,N,00033.7672702,W,4,07,1.0,4.4393,M,47.1052,M,2.9,0000*5D
$GPVTG,72.29,T,72.36,M,3.06,N,5.67,K,D*29
$GPGGA,102124.20,5314.1454951,N,00033.7672022,W,4,07,1.0,4.4501,M,47.1052,M,2.9,0000*51
$GPVTG,71.44,T,71.51,M,3.12,N,5.79,K,D*29
$GPGGA,102124.25,5314.1455071,N,00033.7671392,W,4,07,1.0,4.4577,M,47.1052,M,3.0,0000*5C
$GPVTG,69.07,T,69.14,M,3.09,N,5.72,K,D*2E
$GPGGA,102124.30,5314.1455194,N,00033.7670815,W,4,07,1.0,4.4615,M,47.1052,M,3.0,0000*50
$GPVTG,70.08,T,70.14,M,2.81,N,5.21,K,D*26
$GPGGA,102124.35,5314.1455322,N,00033.7670174,W,4,07,1.0,4.4552,M,47.1052,M,3.1,0000*55
$GPVTG,70.90,T,70.97,M,2.81,N,5.21,K,D*2C
$GPGGA,102124.40,5314.1455433,N,00033.7669612,W,4,07,1.0,4.4551,M,47.1052,M,3.1,0000*5C
$GPVTG,70.77,T,70.83,M,2.63,N,4.87,K,D*21
$GPGGA,102124.45,5314.1455583,N,00033.7668994,W,4,07,1.0,4.4400,M,47.1052,M,3.2,0000*55
$GPVTG,69.89,T,69.96,M,2.63,N,4.87,K,D*24
$GPGGA,102124.50,5314.1455738,N,00033.7668424,W,4,07,1.0,4.4386,M,47.1052,M,3.2,0000*5C
$GPVTG,67.96,T,68.03,M,2.70,N,4.99,K,D*24
